OBJECTID,Data_Numbe,Codes,Site_Name,Latitude,Longitude,Elevation,minD,maxD,No__Temps,Gradient,No__Cond_,Conductivi,No_Heat_Pr,Heat_Prod_,Heat Flow,No__sites,Year_of_Pu,Reference,Comments,Comments2
4397,4824,<null>,AINHICE,43.2133,-1.1317,220,0,3540,4,0,0,0,<null>,<null>,55,1,1991,Lucazeau_etal1991,Mottaghy_etal2005,conventional
4400,4825,<null>,Aire sur Adour,43.6783,-0.3083,160,0,4184,5,0,0,0,<null>,<null>,46,1,1991,Lucazeau_etal1991,Lucazeau_etal1991,borehole
4401,4826,<null>,ALBARON,43.5767,4.43,524,0,270,1,0,0,0,<null>,<null>,144,1,1991,Lucazeau_etal1991,Lucazeau_etal1991,borehole
4403,4827,<null>,AMOU,43.6017,-0.7533,4,0,5542,8,0,0,0,<null>,<null>,73,1,1991,Lucazeau_etal1991,Lucazeau_etal1991,borehole
4406,4828,<null>,ANDOINS,43.3,-0.2317,274,0,5563,4,0,0,0,<null>,<null>,77,1,1991,Lucazeau_etal1991,Lucazeau_etal1991,borehole
4408,4829,<null>,ARBUS2,43.3283,-0.515,259,0,6200,11,0,0,0,<null>,<null>,81,<null>,1991,Lucazeau_etal1991,Lucazeau_etal1991,borehole
4410,4830,<null>,ARCACHON,44.6517,-1.16,20,0,3805,4,0,0,0,<null>,<null>,82,<null>,1991,Lucazeau_etal1991,Lucazeau_etal1991,borehole
4412,4831,<null>,ARN101,43.2867,-0.2483,262,0,3657,4,0,0,0,<null>,<null>,87,<null>,1991,Lucazeau_etal1991,Lucazeau_etal1991,borehole
4414,4832,<null>,ARNAUDG,43.1583,0.8917,378,0,5085,6,0,0,0,<null>,<null>,99,<null>,1991,Lucazeau_etal1991,Lucazeau_etal1991,borehole
4416,4833,<null>,ARROUTIS,43.195,-0.2383,256,0,5247,4,0,0,0,<null>,<null>,79,<null>,1991,Lucazeau_etal1991,Lucazeau_etal1991,borehole
4418,4834,<null>,ARTAGAN2,43.3967,0.0917,213,0,3478,4,0,0,0,<null>,<null>,78,<null>,1991,Lucazeau_etal1991,Lucazeau_etal1991,borehole
4420,4835,<null>,ASSAT,43.265,-0.2983,205,0,5420,16,0,0,0,<null>,<null>,92,<null>,1991,Lucazeau_etal1991,Lucazeau_etal1991,borehole
4427,4839,<null>,Audignon 10,43.7167,-0.4233,75,0,3340,7,0,0,0,<null>,<null>,82,1,1991,Lucazeau_etal1991,Lucazeau_etal1991,borehole
4429,4840,<null>,Audignon 3,43.745,-0.6317,34,0,3052,4,0,0,0,<null>,<null>,83,1,1991,Lucazeau_etal1991,Lucazeau_etal1991,borehole
4432,4841,<null>,Audignon 4,43.675,-0.6333,119,0,5300,10,0,0,0,<null>,<null>,77,1,1991,Lucazeau_etal1991,Lucazeau_etal1991,borehole
4435,4843,<null>,BASSOUES,43.6167,0.0967,138,0,3117,8,0,0,0,<null>,<null>,76,<null>,1991,Lucazeau_etal1991,Lucazeau_etal1991,borehole
4437,4844,<null>,BAYSERE1,43.3017,-0.5517,155,0,5659,10,0,0,0,<null>,<null>,92,<null>,1991,Lucazeau_etal1991,Lucazeau_etal1991,borehole
4438,4845,<null>,BAYSERE2,43.3017,-0.5517,152,0,4897,4,0,0,0,<null>,<null>,92,<null>,1991,Lucazeau_etal1991,Lucazeau_etal1991,borehole
4440,4846,<null>,BAZILLAC,43.365,0.1317,225,0,4278,10,0,0,0,<null>,<null>,75,<null>,1991,Lucazeau_etal1991,Lucazeau_etal1991,borehole
4442,4847,<null>,BEAUDUC,43.3717,4.6183,1,0,1420,1,0,0,0,<null>,<null>,66,<null>,1991,Lucazeau_etal1991,Lucazeau_etal1991,borehole
4444,4848,<null>,BERENX1,43.4883,-0.9283,126,0,5782,6,0,0,0,<null>,<null>,73,<null>,1991,Lucazeau_etal1991,Lucazeau_etal1991,borehole
4446,4849,<null>,BERENX2,43.4917,-0.9283,127,0,6237,6,0,0,0,<null>,<null>,75,<null>,1991,Lucazeau_etal1991,Lucazeau_etal1991,borehole
4448,4850,<null>,BISCAROS,44.4667,-1.25,15,0,4540,4,0,0,0,<null>,<null>,83,<null>,1991,Lucazeau_etal1991,Lucazeau_etal1991,borehole
4450,4851,<null>,BLAJAN1,43.2483,0.605,343,0,4410,5,0,0,0,<null>,<null>,80,<null>,1991,Lucazeau_etal1991,Lucazeau_etal1991,borehole
4452,4852,<null>,BONNEFON,43.2433,0.38,339,0,4797,6,0,0,0,<null>,<null>,83,<null>,1991,Lucazeau_etal1991,Lucazeau_etal1991,borehole
4454,4853,<null>,BOOS1,43.93,-1.075,80,0,2831,5,0,0,0,<null>,<null>,78,<null>,1991,Lucazeau_etal1991,Lucazeau_etal1991,borehole
4457,4854,<null>,BORDES1,43.2333,-0.29,218,0,5811,11,0,0,0,<null>,<null>,93,<null>,1991,Lucazeau_etal1991,Lucazeau_etal1991,borehole
4459,4855,<null>,BORY1,43.265,-0.4533,237,0,5825,11,0,0,0,<null>,<null>,86,<null>,1991,Lucazeau_etal1991,Lucazeau_etal1991,borehole
4461,4856,<null>,BRASSEMP,43.6217,-0.7083,47,0,5513,7,0,0,0,<null>,<null>,83,<null>,1991,Lucazeau_etal1991,Lucazeau_etal1991,borehole
4463,4857,<null>,BRESSE2,46.27,4.9967,190,0,1554,4,0,0,0,<null>,<null>,91,<null>,1991,Lucazeau_etal1991,Lucazeau_etal1991,borehole
4465,4858,<null>,BRESSEN,46.745,5.2467,210,0,2150,4,0,0,0,<null>,<null>,94,<null>,1991,Lucazeau_etal1991,Lucazeau_etal1991,borehole
4467,4859,<null>,BRESSES,46.02,5.14,291,0,2603,5,33,0,0,<null>,<null>,86,<null>,1991,Lucazeau_etal1991,Lucazeau_etal1991,borehole
4469,4860,<null>,BRIENON,48.02,3.64,118,0,1090,4,0,0,0,<null>,<null>,91,<null>,1991,Lucazeau_etal1991,Lucazeau_etal1991,borehole
4471,4861,<null>,BUEZ,47.2683,6.4133,684,0,1200,3,0,0,0,<null>,<null>,78,<null>,1991,Lucazeau_etal1991,Lucazeau_etal1991,borehole
4473,4862,<null>,CAGNOT.1,43.575,-1.0517,54,0,2790,4,0,0,0,<null>,<null>,74,<null>,1991,Lucazeau_etal1991,Lucazeau_etal1991,borehole
4475,4863,<null>,CAGNOTTE,43.5733,-1.0383,58,0,3575,4,0,0,0,<null>,<null>,66,<null>,1991,Lucazeau_etal1991,Lucazeau_etal1991,borehole
4477,4864,<null>,CALAVANT,43.2083,0.1833,311,0,5682,4,0,0,0,<null>,<null>,87,<null>,1991,Lucazeau_etal1991,Lucazeau_etal1991,borehole
4479,4865,<null>,CAME1,43.4533,-1.0833,86,0,5660,7,0,0,0,<null>,<null>,83,<null>,1991,Lucazeau_etal1991,Lucazeau_etal1991,borehole
4481,4866,<null>,CAMPAGN,43.76,4.3817,84,0,1016,1,0,0,0,<null>,<null>,111,<null>,1991,Lucazeau_etal1991,Lucazeau_etal1991,borehole
4484,4868,<null>,CANTAURE,44.22,-0.9633,61,0,2765,3,0,0,0,<null>,<null>,77,<null>,1991,Lucazeau_etal1991,Lucazeau_etal1991,borehole
4486,4869,<null>,CANTELOU,43.2933,-0.5817,266,0,5925,12,0,0,0,<null>,<null>,91,<null>,1991,Lucazeau_etal1991,Lucazeau_etal1991,borehole
4488,4870,<null>,CARCANS,43.8167,-1.2283,28,0,1932,4,0,0,0,<null>,<null>,92,<null>,1991,Lucazeau_etal1991,Lucazeau_etal1991,borehole
4491,4872,<null>,CARDESSE,43.2333,-0.55,172,0,5095,11,0,0,0,<null>,<null>,97,<null>,1991,Lucazeau_etal1991,Lucazeau_etal1991,borehole
4495,4874,<null>,CAZAUX1,44.54,-1.1817,30,0,3374,10,0,0,0,<null>,<null>,76,<null>,1991,Lucazeau_etal1991,Lucazeau_etal1991,borehole
4497,4875,<null>,CAZERES,43.1317,1.2033,493,0,3439,3,0,0,0,<null>,<null>,85,<null>,1991,Lucazeau_etal1991,Lucazeau_etal1991,borehole
4499,4876,<null>,CHARLAS,43.2233,0.7017,357,0,3569,7,0,0,0,<null>,<null>,66,<null>,1991,Lucazeau_etal1991,Lucazeau_etal1991,borehole
4502,4878,<null>,CHERAUTE,43.225,-0.8283,195,0,6088,8,0,0,0,<null>,<null>,69,<null>,1991,Lucazeau_etal1991,Lucazeau_etal1991,borehole
4504,4879,<null>,CLARAC,43.125,0.615,502,0,5232,7,0,0,0,<null>,<null>,66,<null>,1991,Lucazeau_etal1991,Lucazeau_etal1991,borehole
4506,4880,<null>,CLARENS,43.1633,0.4367,554,0,3500,6,0,0,0,<null>,<null>,79,<null>,1991,Lucazeau_etal1991,Lucazeau_etal1991,borehole
4508,4881,<null>,CLAVEYS,45.1917,4.9417,307,0,1708,1,0,0,0,<null>,<null>,91,<null>,1991,Lucazeau_etal1991,Lucazeau_etal1991,borehole
4510,4882,<null>,CLEDES,43.6183,-0.3967,94,0,3541,6,0,0,0,<null>,<null>,78,<null>,1991,Lucazeau_etal1991,Lucazeau_etal1991,borehole
4512,4883,<null>,CLERM1,43.6217,-0.9483,26,0,3368,7,0,0,0,<null>,<null>,78,<null>,1991,Lucazeau_etal1991,Lucazeau_etal1991,borehole
4514,4884,<null>,CLERM2,43.625,-0.9533,25,0,2363,9,0,0,0,<null>,<null>,68,<null>,1991,Lucazeau_etal1991,Lucazeau_etal1991,borehole
4516,4885,<null>,CLERM3,43.6883,-0.9617,21,0,2359,5,0,0,0,<null>,<null>,74,<null>,1991,Lucazeau_etal1991,Lucazeau_etal1991,borehole
4518,4886,<null>,CLERM6,43.6267,-0.9733,25,0,2272,6,0,0,0,<null>,<null>,69,<null>,1991,Lucazeau_etal1991,Lucazeau_etal1991,borehole
4520,4887,<null>,CLERM7,43.6383,-0.9667,18,0,2294,4,0,0,0,<null>,<null>,75,<null>,1991,Lucazeau_etal1991,Lucazeau_etal1991,borehole
4522,4888,<null>,CONTIS,44.0967,-1.2967,24,0,4809,5,0,0,0,<null>,<null>,105,<null>,1991,Lucazeau_etal1991,Lucazeau_etal1991,borehole
4524,4889,<null>,CRANCOT,46.68,5.625,539,0,851,3,0,0,0,<null>,<null>,95,<null>,1991,Lucazeau_etal1991,Lucazeau_etal1991,borehole
4526,4890,<null>,CRECY,48.8633,2.9183,109,0,2600,4,0,0,0,<null>,<null>,83,<null>,1991,Lucazeau_etal1991,Lucazeau_etal1991,borehole
4528,4891,<null>,CROUSEIL,43.525,-0.0933,251,0,4010,4,0,0,0,<null>,<null>,63,<null>,1991,Lucazeau_etal1991,Lucazeau_etal1991,borehole
4530,4892,<null>,CUISEAUX,46.5017,5.3767,240,0,2345,3,0,0,0,<null>,<null>,87,<null>,1991,Lucazeau_etal1991,Lucazeau_etal1991,borehole
4532,4893,<null>,DREUILH3,42.9367,1.8617,550,0,3094,7,0,0,0,<null>,<null>,92,<null>,1991,Lucazeau_etal1991,Lucazeau_etal1991,borehole
4535,4894,<null>,DREUILH4,42.93,1.85,552,0,4257,13,0,0,0,<null>,<null>,88,<null>,1991,Lucazeau_etal1991,Lucazeau_etal1991,borehole
4536,4895,<null>,Echassiere,46.1767,2.9567,730,50,900,0,50,0,3,<null>,999,150,1,1991,Lucazeau_etal1991,Lucazeau_etal1991,borehole
4538,4896,<null>,ERMITAGE,43.1583,-0.255,309,0,5035,14,0,0,0,<null>,<null>,79,<null>,1991,Lucazeau_etal1991,Lucazeau_etal1991,borehole
4541,4897,<null>,ESPECHED,43.32,-0.1933,336,0,4246,3,0,0,0,<null>,<null>,67,<null>,1991,Lucazeau_etal1991,Lucazeau_etal1991,borehole
4542,4898,<null>,ESTIBEAU,43.63,-0.9117,54,0,4562,12,0,0,0,<null>,<null>,70,<null>,1991,Lucazeau_etal1991,Lucazeau_etal1991,borehole
4544,4899,<null>,ETERNOZ,47.0083,6.01,521,0,1223,5,0,0,0,<null>,<null>,83,<null>,1991,Lucazeau_etal1991,Lucazeau_etal1991,borehole
4547,4901,<null>,GALAN1,43.2017,0.3383,353,0,3800,5,0,0,0,<null>,<null>,79,<null>,1991,Lucazeau_etal1991,Lucazeau_etal1991,borehole
4549,4902,<null>,GALLICI,43.6367,4.2867,1,0,2026,3,0,0,0,<null>,<null>,95,<null>,1991,Lucazeau_etal1991,Lucazeau_etal1991,borehole
4551,4903,<null>,GALLICI,43.6367,4.2767,4,0,2000,1,0,0,0,<null>,<null>,121,<null>,1991,Lucazeau_etal1991,Lucazeau_etal1991,borehole
4553,4904,<null>,GARLI101,43.5367,-0.265,160,0,4501,7,0,0,0,<null>,<null>,78,<null>,1991,Lucazeau_etal1991,Lucazeau_etal1991,borehole
4555,4905,<null>,GARLIN6,43.47,-0.195,186,0,3520,10,0,0,0,<null>,<null>,85,<null>,1991,Lucazeau_etal1991,Lucazeau_etal1991,borehole
4557,4906,<null>,GAUJACQ1,43.625,-0.73,59,0,5576,9,0,0,0,<null>,<null>,77,<null>,1991,Lucazeau_etal1991,Lucazeau_etal1991,borehole
4559,4907,<null>,GAUJACQ2,43.625,-0.7383,61,0,3929,4,0,0,0,<null>,<null>,72,<null>,1991,Lucazeau_etal1991,Lucazeau_etal1991,borehole
4561,4908,<null>,GEAUNE1,43.675,-0.3983,158,0,3835,6,0,0,0,<null>,<null>,74,<null>,1991,Lucazeau_etal1991,Lucazeau_etal1991,borehole
4563,4909,<null>,GENSAC8,43.2467,0.58,438,0,3765,5,0,0,0,<null>,<null>,80,<null>,1991,Lucazeau_etal1991,Lucazeau_etal1991,borehole
4565,4910,<null>,GER1,43.2517,-0.065,407,0,6650,14,0,0,0,<null>,<null>,87,<null>,1991,Lucazeau_etal1991,Lucazeau_etal1991,borehole
4567,4911,<null>,GER101,43.2267,-0.0467,426,0,3787,3,0,0,0,<null>,<null>,67,<null>,1991,Lucazeau_etal1991,Lucazeau_etal1991,borehole
4569,4912,<null>,GER301,43.2233,-0.08,430,0,2200,3,0,0,0,<null>,<null>,56,<null>,1991,Lucazeau_etal1991,Lucazeau_etal1991,borehole
4571,4913,<null>,GIGNY,46.6733,4.94,178,0,1275,5,0,0,0,<null>,<null>,98,<null>,1991,Lucazeau_etal1991,Lucazeau_etal1991,borehole
4574,4915,<null>,GRDRIEU,43.23,-0.4517,246,0,5206,8,0,0,0,<null>,<null>,84,<null>,1991,Lucazeau_etal1991,Lucazeau_etal1991,borehole
4577,4917,<null>,GREOUX,43.7417,5.8767,329,0,1788,2,0,0,0,<null>,<null>,97,<null>,1991,Lucazeau_etal1991,Lucazeau_etal1991,borehole
4579,4918,<null>,GREOUX,43.7367,5.86,289,0,1037,3,0,0,0,<null>,<null>,81,<null>,1991,Lucazeau_etal1991,Lucazeau_etal1991,borehole
4580,4919,<null>,HASP101,43.4083,-1.36,124,0,6284,7,0,0,0,<null>,<null>,82,<null>,1991,Lucazeau_etal1991,Lucazeau_etal1991,borehole
4581,4920,<null>,HIRTZBAC,47.6017,7.2183,310,0,730,1,0,0,0,<null>,<null>,141,<null>,1991,Lucazeau_etal1991,Lucazeau_etal1991,borehole
4582,4921,<null>,HOURQUET,44.7583,-1.1883,15,0,3390,4,0,0,0,<null>,<null>,76,<null>,1991,Lucazeau_etal1991,Lucazeau_etal1991,borehole
4583,4922,<null>,HUMILLY,46.115,6.025,500,0,3053,4,0,0,0,<null>,<null>,81,<null>,1991,Lucazeau_etal1991,Lucazeau_etal1991,borehole
4584,4923,<null>,ISCLES1,43.6067,4.3583,2,0,1787,2,0,0,0,<null>,<null>,89,<null>,1991,Lucazeau_etal1991,Lucazeau_etal1991,borehole
4585,4924,<null>,ISCLES2,43.6117,4.3983,1,0,690,1,0,0,0,<null>,<null>,91,<null>,1991,Lucazeau_etal1991,Lucazeau_etal1991,borehole
4586,4925,<null>,ISTRES,43.5317,4.9617,0,0,3454,3,0,0,0,<null>,<null>,111,<null>,1991,Lucazeau_etal1991,Lucazeau_etal1991,borehole
4589,4927,<null>,JUILLAN,43.2033,0.035,320,0,5001,4,0,0,0,<null>,<null>,90,<null>,1991,Lucazeau_etal1991,Lucazeau_etal1991,borehole
4590,4928,<null>,L.CASSIE,43.23,-0.7217,209,0,5692,13,0,0,0,<null>,<null>,81,<null>,1991,Lucazeau_etal1991,Lucazeau_etal1991,borehole
4592,4929,<null>,LABENNE,43.59,-1.4783,12,0,4243,4,0,0,0,<null>,<null>,73,<null>,1991,Lucazeau_etal1991,Lucazeau_etal1991,borehole
4593,4930,<null>,LACQ104,43.42,-0.6383,93,0,4347,8,0,0,0,<null>,<null>,6390,<null>,1991,Lucazeau_etal1991,Lucazeau_etal1991,borehole
4594,4931,<null>,LACQ107,43.41,-0.5767,130,0,5210,7,0,0,0,<null>,<null>,89,<null>,1991,Lucazeau_etal1991,Lucazeau_etal1991,borehole
4595,4932,<null>,LACQ116,43.4367,-0.7283,195,0,5240,9,0,0,0,<null>,<null>,74,<null>,1991,Lucazeau_etal1991,Lucazeau_etal1991,borehole
4597,4933,<null>,LACQ301,43.4217,-0.6733,83,0,4933,8,0,0,0,<null>,<null>,80,<null>,1991,Lucazeau_etal1991,Lucazeau_etal1991,borehole
4599,4934,<null>,LAMAYOU,43.3717,-0.05,336,0,4140,8,0,0,0,<null>,<null>,89,<null>,1991,Lucazeau_etal1991,Lucazeau_etal1991,borehole
4601,4935,<null>,LANNEMEZ,43.1217,0.4167,596,0,6900,10,0,0,0,<null>,<null>,65,<null>,1991,Lucazeau_etal1991,Lucazeau_etal1991,borehole
4603,4936,<null>,LASSEUBE,43.2267,-0.5267,213,0,1950,4,0,0,0,<null>,<null>,71,<null>,1991,Lucazeau_etal1991,Lucazeau_etal1991,borehole
4605,4937,<null>,LAVAUR,43.755,1.74,120,0,1782,7,0,0,0,<null>,<null>,95,<null>,1991,Lucazeau_etal1991,Lucazeau_etal1991,borehole
4607,4938,<null>,LEROUAT,43.2533,-0.5133,258,0,5118,4,0,0,0,<null>,<null>,68,<null>,1991,Lucazeau_etal1991,Lucazeau_etal1991,borehole
4609,4939,<null>,LETEICH,44.6267,-1.0367,10,0,3464,8,0,0,0,<null>,<null>,73,<null>,1991,Lucazeau_etal1991,Lucazeau_etal1991,borehole
4612,4940,<null>,LEMBEYE,43.455,-0.1367,175,0,3316,9,0,0,0,<null>,<null>,85,<null>,1991,Lucazeau_etal1991,Lucazeau_etal1991,borehole
4614,4941,<null>,LENAN1,44.705,-1.0233,8,0,4153,7,0,0,0,<null>,<null>,65,<null>,1991,Lucazeau_etal1991,Lucazeau_etal1991,borehole
4617,4944,<null>,LHUITRE,48.6033,4.3217,161,0,3734,4,0,0,0,<null>,<null>,97,<null>,1991,Lucazeau_etal1991,Lucazeau_etal1991,borehole
4619,4945,<null>,LIEOUX2,43.1433,0.7333,415,0,2829,7,0,0,0,<null>,<null>,75,<null>,1991,Lucazeau_etal1991,Lucazeau_etal1991,borehole
4621,4946,<null>,LNZ2R,43.145,0.41,562,0,6216,6,0,0,0,<null>,<null>,65,<null>,1991,Lucazeau_etal1991,Lucazeau_etal1991,borehole
4622,4947,<null>,LONS1,43.3083,-0.4033,166,0,6110,14,0,0,0,<null>,<null>,93,<null>,1991,Lucazeau_etal1991,Lucazeau_etal1991,borehole
4624,4948,<null>,LOO1,43.05,0.69,435,0,3056,6,0,0,0,<null>,<null>,88,<null>,1991,Lucazeau_etal1991,Lucazeau_etal1991,borehole
4626,4949,<null>,LOSSE1,44.0717,-0.0833,138,0,2701,6,0,0,0,<null>,<null>,82,<null>,1991,Lucazeau_etal1991,Lucazeau_etal1991,borehole
4628,4950,<null>,LOUSLITG,43.6033,0.1733,185,0,4615,5,0,0,0,<null>,<null>,77,<null>,1991,Lucazeau_etal1991,Lucazeau_etal1991,borehole
4630,4951,<null>,LUSSAGN1,43.7733,-0.2317,94,0,3039,6,0,0,0,<null>,<null>,86,<null>,1991,Lucazeau_etal1991,Lucazeau_etal1991,borehole
4632,4952,<null>,LUSSAN,44.2617,4.2383,169,0,1393,1,0,0,0,<null>,<null>,126,<null>,1991,Lucazeau_etal1991,Lucazeau_etal1991,borehole
4636,4955,<null>,MASDAZ,43.0667,1.3933,309,0,5190,6,0,0,0,<null>,<null>,86,<null>,1991,Lucazeau_etal1991,Lucazeau_etal1991,borehole
4639,4956,<null>,MAUBOURG,43.3867,0.1417,216,0,3486,4,0,0,0,<null>,<null>,68,<null>,1991,Lucazeau_etal1991,Lucazeau_etal1991,borehole
4640,4957,<null>,MAURRIN,43.8417,-0.3617,89,0,3800,4,0,0,0,<null>,<null>,77,<null>,1991,Lucazeau_etal1991,Lucazeau_etal1991,borehole
4642,4958,<null>,MAZERES,43.2667,-0.3533,311,0,5446,9,0,0,0,<null>,<null>,74,<null>,1991,Lucazeau_etal1991,Lucazeau_etal1991,borehole
4644,4959,<null>,MEILLON,43.275,-0.3083,204,0,5151,16,0,0,0,<null>,<null>,93,<null>,1991,Lucazeau_etal1991,Lucazeau_etal1991,borehole
4646,4960,<null>,MEILLON2,43.285,-0.23,273,0,6080,11,0,0,0,<null>,<null>,88,<null>,1991,Lucazeau_etal1991,Lucazeau_etal1991,borehole
4648,4961,<null>,MEISTRAT,48.4517,7.5517,154,0,1708,4,0,0,0,<null>,<null>,157,<null>,1991,Lucazeau_etal1991,Lucazeau_etal1991,borehole
4651,4962,<null>,MEZOS,44.0817,-1.1333,20,0,3240,5,0,0,0,<null>,<null>,73,<null>,1991,Lucazeau_etal1991,Lucazeau_etal1991,borehole
4652,4963,<null>,MILHAUD,43.7817,4.3333,27,0,900,2,0,0,0,<null>,<null>,109,<null>,1991,Lucazeau_etal1991,Lucazeau_etal1991,borehole
4654,4964,<null>,MILHAUD,43.7817,4.3317,21,0,780,1,0,0,0,<null>,<null>,124,<null>,1991,Lucazeau_etal1991,Lucazeau_etal1991,borehole
4656,4965,<null>,MIMIZAN1,44.185,-1.2033,30,0,3493,5,0,0,0,<null>,<null>,83,<null>,1991,Lucazeau_etal1991,Lucazeau_etal1991,borehole
4658,4966,<null>,MIMIZAN2,44.1867,-1.215,28,0,3762,9,0,0,0,<null>,<null>,79,<null>,1991,Lucazeau_etal1991,Lucazeau_etal1991,borehole
4660,4967,<null>,MIMIZANP,44.2017,-1.2567,14,0,3450,7,0,0,0,<null>,<null>,72,<null>,1991,Lucazeau_etal1991,Lucazeau_etal1991,borehole
4663,4969,<null>,MONDILHA,43.2767,0.685,267,0,4059,3,0,0,0,<null>,<null>,78,<null>,1991,Lucazeau_etal1991,Lucazeau_etal1991,borehole
4665,4970,<null>,MONEIN,43.3083,-0.6117,120,0,1935,5,0,0,0,<null>,<null>,69,<null>,1991,Lucazeau_etal1991,Lucazeau_etal1991,borehole
4669,4972,<null>,MONTLEVE,48.9183,3.0017,166,0,2410,6,0,0,0,<null>,<null>,68,<null>,1991,Lucazeau_etal1991,Lucazeau_etal1991,borehole
4671,4973,<null>,MONTMIRA,48.8467,3.51,166,0,2211,4,0,0,0,<null>,<null>,75,<null>,1991,Lucazeau_etal1991,Lucazeau_etal1991,borehole
4673,4974,<null>,MONTMIRA,45.1583,5.1817,450,0,2480,3,0,0,0,<null>,<null>,84,<null>,1991,Lucazeau_etal1991,Lucazeau_etal1991,borehole
4676,4976,<null>,NANTOUIL,49,2.7183,108,0,2198,15,0,0,0,<null>,<null>,80,<null>,1991,Lucazeau_etal1991,Lucazeau_etal1991,borehole
4678,4977,<null>,NASSIET,43.6033,-0.675,46,0,5693,10,0,0,0,<null>,<null>,75,<null>,1991,Lucazeau_etal1991,Lucazeau_etal1991,borehole
4680,4978,<null>,NAY101,43.1383,-0.2683,334,0,3955,12,0,0,0,<null>,<null>,64,<null>,1991,Lucazeau_etal1991,Lucazeau_etal1991,borehole
4682,4979,<null>,NEUFCHEL,49.11,3.0533,90,0,2669,4,0,0,0,<null>,<null>,83,<null>,1991,Lucazeau_etal1991,Lucazeau_etal1991,borehole
4684,4980,<null>,NIMES,43.86,4.3967,89,0,1840,1,0,0,0,<null>,<null>,90,<null>,1991,Lucazeau_etal1991,Lucazeau_etal1991,borehole
4686,4981,<null>,NOAILLAN,44.48,-0.32,86,0,3197,4,0,0,0,<null>,<null>,77,<null>,1991,Lucazeau_etal1991,Lucazeau_etal1991,borehole
4688,4982,<null>,NOAILLES,49.2817,2.2433,145,0,1658,4,0,0,0,<null>,<null>,91,<null>,1991,Lucazeau_etal1991,Lucazeau_etal1991,borehole
4690,4983,<null>,OBERSEEB,48.9783,8.0017,179,0,1083,4,0,0,0,<null>,<null>,161,<null>,1991,Lucazeau_etal1991,Lucazeau_etal1991,borehole
4692,4984,<null>,OGENNEC,43.3017,-0.685,190,0,6543,6,0,0,0,<null>,<null>,77,<null>,1991,Lucazeau_etal1991,Lucazeau_etal1991,borehole
4694,4985,<null>,ORTHEZ,43.4733,-0.8533,160,0,5477,12,0,0,0,<null>,<null>,71,<null>,1991,Lucazeau_etal1991,Lucazeau_etal1991,borehole
4696,4986,<null>,OSMETS1,43.3083,0.2467,234,0,4856,8,0,0,0,<null>,<null>,83,<null>,1991,Lucazeau_etal1991,Lucazeau_etal1991,borehole
4698,4987,<null>,OSSUN,43.1833,0.02,337,0,5450,9,0,0,0,<null>,<null>,95,<null>,1991,Lucazeau_etal1991,Lucazeau_etal1991,borehole
4700,4988,<null>,OUPIA,43.2783,2.7983,80,0,1720,4,0,0,0,<null>,<null>,73,<null>,1991,Lucazeau_etal1991,Lucazeau_etal1991,borehole
4702,4989,<null>,PALLANNE,43.5,0.3367,266,0,4198,4,0,0,0,<null>,<null>,79,<null>,1991,Lucazeau_etal1991,Lucazeau_etal1991,borehole
4706,4992,<null>,PONSOND,43.31,-0.0483,314,0,5730,10,0,0,0,<null>,<null>,93,<null>,1991,Lucazeau_etal1991,Lucazeau_etal1991,borehole
4708,4993,<null>,PORTIRA,43.2683,3.3317,3,0,1148,1,0,0,0,<null>,<null>,116,<null>,1991,Lucazeau_etal1991,Lucazeau_etal1991,borehole
4710,4994,<null>,PTDEM,43.51,5.635,575,0,1938,5,0,0,0,<null>,<null>,57,<null>,1991,Lucazeau_etal1991,Lucazeau_etal1991,borehole
4712,4995,<null>,PTS2,43.2983,-0.5167,144,0,5170,4,0,0,0,<null>,<null>,87,<null>,1991,Lucazeau_etal1991,Lucazeau_etal1991,borehole
4714,4996,<null>,PTS3,43.295,-0.4867,242,0,5227,9,0,0,0,<null>,<null>,93,<null>,1991,Lucazeau_etal1991,Lucazeau_etal1991,borehole
4716,4997,<null>,PTS4,43.3067,-0.5117,137,0,5537,10,0,0,0,<null>,<null>,100,<null>,1991,Lucazeau_etal1991,Lucazeau_etal1991,borehole
4718,4998,<null>,PUYMAURI,43.3867,0.7167,221,0,3281,6,0,0,0,<null>,<null>,103,<null>,1991,Lucazeau_etal1991,Lucazeau_etal1991,borehole
4720,4999,<null>,RICHOU3,43.0817,1.21,436,0,4571,9,0,0,0,<null>,<null>,81,<null>,1991,Lucazeau_etal1991,Lucazeau_etal1991,borehole
4722,5000,<null>,SALIES1,43.4533,-0.935,135,0,3420,7,0,0,0,<null>,<null>,65,<null>,1991,Lucazeau_etal1991,Lucazeau_etal1991,borehole
4724,5001,<null>,SAUVELAD,43.4267,-0.7367,87,0,3508,8,0,0,0,<null>,<null>,69,<null>,1991,Lucazeau_etal1991,Lucazeau_etal1991,borehole
4727,5003,<null>,SAVOIE,45.9333,5.8867,344,0,2131,3,0,0,0,<null>,<null>,82,<null>,1991,Lucazeau_etal1991,Lucazeau_etal1991,borehole
4729,5004,<null>,SCHEIBEN,48.9717,8.11,140,0,2000,7,0,0,0,<null>,<null>,183,<null>,1991,Lucazeau_etal1991,Lucazeau_etal1991,borehole
4731,5005,<null>,SEDZEMA,43.3433,-0.13,364,0,4203,3,0,0,0,<null>,<null>,90,<null>,1991,Lucazeau_etal1991,Lucazeau_etal1991,borehole
4733,5006,<null>,SENAC,43.3633,0.1683,223,0,5234,4,0,0,0,<null>,<null>,82,<null>,1991,Lucazeau_etal1991,Lucazeau_etal1991,borehole
4735,5007,<null>,SERGINES,48.36,3.2883,153,0,1937,4,0,0,0,<null>,<null>,77,<null>,1991,Lucazeau_etal1991,Lucazeau_etal1991,borehole
4737,5008,<null>,SIMANDRE,46.625,5.0117,210,0,1113,3,0,0,0,<null>,<null>,109,<null>,1991,Lucazeau_etal1991,Lucazeau_etal1991,borehole
4739,5009,<null>,SMP1,43.2017,0.7667,377,0,4520,7,0,0,0,<null>,<null>,82,<null>,1991,Lucazeau_etal1991,Lucazeau_etal1991,borehole
4741,5010,<null>,SORDE,43.5333,-1.0633,15,0,2918,6,0,0,0,<null>,<null>,82,<null>,1991,Lucazeau_etal1991,Lucazeau_etal1991,borehole
4743,5011,<null>,SOUDRON,48.8133,4.19,133,0,2502,5,0,0,0,<null>,<null>,85,<null>,1991,Lucazeau_etal1991,Lucazeau_etal1991,borehole
4745,5012,<null>,Soultz,47.8533,7.2367,250,0,2438,6,0,0,0,<null>,<null>,134,<null>,1991,Lucazeau_etal1991,Lucazeau_etal1991,borehole
4747,5013,<null>,SOUST,43.26,-0.3667,191,0,5715,3,0,0,0,<null>,<null>,81,<null>,1991,Lucazeau_etal1991,Lucazeau_etal1991,borehole
4750,5014,<null>,SSE101,43.4517,-0.805,102,0,5187,7,0,0,0,<null>,<null>,69,<null>,1991,Lucazeau_etal1991,Lucazeau_etal1991,borehole
4751,5015,<null>,SSE3,43.4883,-0.8183,65,0,3506,6,0,0,0,<null>,<null>,61,<null>,1991,Lucazeau_etal1991,Lucazeau_etal1991,borehole
4755,5017,<null>,STCOLOM,43.6683,-0.5633,127,0,4906,7,0,0,0,<null>,<null>,81,<null>,1991,Lucazeau_etal1991,Lucazeau_etal1991,borehole
4756,5018,<null>,STFAU2,43.2867,-0.4317,170,0,4988,16,0,0,0,<null>,<null>,93,<null>,1991,Lucazeau_etal1991,Lucazeau_etal1991,borehole
4758,5019,<null>,STFAU3,43.2883,-0.4567,289,0,5300,4,0,0,0,<null>,<null>,88,<null>,1991,Lucazeau_etal1991,Lucazeau_etal1991,borehole
4760,5020,<null>,STFAU7,43.2867,-0.42,294,0,4950,4,0,0,0,<null>,<null>,91,<null>,1991,Lucazeau_etal1991,Lucazeau_etal1991,borehole
4763,5021,<null>,STIGN1,43.14,0.685,431,0,1898,8,0,0,0,<null>,<null>,65,<null>,1991,Lucazeau_etal1991,Lucazeau_etal1991,borehole
4765,5022,<null>,STMEDAR,43.51,0.4633,169,0,3584,8,0,0,0,<null>,<null>,76,<null>,1991,Lucazeau_etal1991,Lucazeau_etal1991,borehole
4767,5023,<null>,STPLACA,43.1517,0.5583,417,0,1737,4,0,0,0,<null>,<null>,77,<null>,1991,Lucazeau_etal1991,Lucazeau_etal1991,borehole
4769,5024,<null>,STVINCE,43.1483,-0.14,426,0,4613,8,0,0,0,<null>,<null>,72,<null>,1991,Lucazeau_etal1991,Lucazeau_etal1991,borehole
4770,5025,<null>,STECECI,43.615,4.5683,3,0,2825,3,0,0,0,<null>,<null>,79,<null>,1991,Lucazeau_etal1991,Lucazeau_etal1991,borehole
4772,5026,<null>,STEMARI,43.46,4.4367,1,0,2726,3,0,0,0,<null>,<null>,71,<null>,1991,Lucazeau_etal1991,Lucazeau_etal1991,borehole
4774,5027,<null>,STEMARI,43.46,4.4367,1,0,710,1,0,0,0,<null>,<null>,129,<null>,1991,Lucazeau_etal1991,Lucazeau_etal1991,borehole
4776,5028,<null>,STLUPIEN,48.3917,3.6867,147,0,1716,5,0,0,0,<null>,<null>,61,<null>,1991,Lucazeau_etal1991,Lucazeau_etal1991,borehole
4778,5029,<null>,STVERAN,43.7067,4.2833,27,0,2480,1,0,0,0,<null>,<null>,121,<null>,1991,Lucazeau_etal1991,Lucazeau_etal1991,borehole
4780,5030,<null>,THEZE1,43.5083,-0.32,149,0,4807,4,0,0,0,<null>,<null>,86,<null>,1991,Lucazeau_etal1991,Lucazeau_etal1991,borehole
4782,5031,<null>,THEZE201,43.4667,-0.335,226,0,5359,5,0,0,0,<null>,<null>,81,<null>,1991,Lucazeau_etal1991,Lucazeau_etal1991,borehole
4784,5032,<null>,THEZE301,43.4767,-0.3317,228,0,5945,5,0,0,0,<null>,<null>,87,<null>,1991,Lucazeau_etal1991,Lucazeau_etal1991,borehole
4786,5033,<null>,TOURNAY,43.1617,0.1767,489,0,5253,7,0,0,0,<null>,<null>,84,<null>,1991,Lucazeau_etal1991,Lucazeau_etal1991,borehole
4788,5034,<null>,TROULEY,43.3183,0.2533,290,0,3929,5,0,0,0,<null>,<null>,71,<null>,1991,Lucazeau_etal1991,Lucazeau_etal1991,borehole
4790,5035,<null>,UCHA,43.2733,-0.5517,313,0,5138,9,0,0,0,<null>,<null>,75,<null>,1991,Lucazeau_etal1991,Lucazeau_etal1991,borehole
4792,5036,<null>,USTARITZ,43.385,-1.5067,129,0,2905,9,0,0,0,<null>,<null>,103,<null>,1991,Lucazeau_etal1991,Lucazeau_etal1991,borehole
4794,5037,<null>,UZOS1,43.3083,-0.34,190,0,1250,3,0,0,0,<null>,<null>,69,<null>,1991,Lucazeau_etal1991,Lucazeau_etal1991,borehole
4796,5038,<null>,VALENCE,44.945,4.9183,153,0,3666,14,0,0,0,<null>,<null>,97,<null>,1991,Lucazeau_etal1991,Lucazeau_etal1991,borehole
4802,5043,<null>,VILLECOM,43.4,0.22,209,0,3548,4,0,0,0,<null>,<null>,75,<null>,1991,Lucazeau_etal1991,Lucazeau_etal1991,borehole
4804,5044,<null>,VILLENA2,43.9967,-0.86,75,0,2545,4,0,0,0,<null>,<null>,85,<null>,1991,Lucazeau_etal1991,Lucazeau_etal1991,borehole
4807,5045,<null>,VILLENAV,43.955,-0.7717,47,0,2498,5,0,0,0,<null>,<null>,92,<null>,1991,Lucazeau_etal1991,Lucazeau_etal1991,borehole
4808,5046,<null>,VILLENE,43.1467,0.52,365,0,2758,4,0,0,0,<null>,<null>,99,<null>,1991,Lucazeau_etal1991,Lucazeau_etal1991,borehole
4810,5047,<null>,VILLENE,43.1467,0.52,535,0,2498,5,0,0,0,<null>,<null>,93,<null>,1991,Lucazeau_etal1991,Lucazeau_etal1991,borehole
4812,5048,<null>,VILLEPER,48.2567,3.22,89,0,1779,4,0,0,0,<null>,<null>,89,<null>,1991,Lucazeau_etal1991,Lucazeau_etal1991,borehole
4814,5049,<null>,VILLEROY,48.9817,2.7967,107,0,1782,4,0,0,0,<null>,<null>,78,<null>,1991,Lucazeau_etal1991,Lucazeau_etal1991,borehole
4816,5050,<null>,VULAINE,48.5733,3.2183,135,0,3056,5,0,0,0,<null>,<null>,85,<null>,1991,Lucazeau_etal1991,Lucazeau_etal1991,borehole
4818,5051,<null>,YCHOUX,44.3533,-1.085,55,0,2616,4,0,0,0,<null>,<null>,76,1,1991,Lucazeau_etal1991,Lucazeau_etal1991,borehole
4871,5103,<null>,Audignon,43.6817,-0.3633,107,0,2976,7,0,2,2.7,<null>,<null>,81,1,1991,Lucazeau_etal1991,Lucazeau_etal1991,borehole
4873,5104,<null>,Essaviller,46.7867,6.0783,792,0,2067,4,0,0,0,<null>,<null>,91,<null>,1991,Lucazeau_etal1991,Lucazeau_etal1991,borehole
4878,5108,<null>,Villecha,46.025,1.6,0,50,650,60,32,2,3.42,<null>,<null>,97,1,1984,Lucazeau_etal1984,Lucazeau_etal1991,borehole
4885,5114,<null>,PLOMBIER,47.95,6.3333,324,50,150,0,34,2,2.85,<null>,<null>,97,<null>,0,Lucazeau_etal1991; Subono1983,Lucazeau_etal1984,borehole
4887,5115,<null>,SALAU14,42.74,1.1733,1031,148,493,36,23,0,0,<null>,<null>,72,<null>,0,unknown,Lucazeau_etal1991; Subono1983,borehole
4889,5116,<null>,SALAU16,42.74,1.1733,1030,173,424,30,19,42,3.35,<null>,<null>,87,<null>,0,unknown,unknown,borehole
10159,Albania,<null>,KE-839,42.05,20.25,0,0,240,0,24,0,2.85,<null>,<null>,67,<null>,1996,Cermak_etal1996,Cermak_etal1996,<null>
10160,Albania,<null>,RE-306,40.5,20.6167,0,0,100,0,37,0,1.8,<null>,<null>,66,<null>,1996,Cermak_etal1996,Cermak_etal1996,<null>
10161,Albania,<null>,GR-4,40.8833,20,0,0,0,0,11,0,5,<null>,<null>,56,<null>,1996,Cermak_etal1996,Cermak_etal1996,<null>
10162,Albania,<null>,PA-1,41.0333,20,0,0,3000,0,11,0,5,<null>,<null>,56,<null>,1996,Cermak_etal1996,Cermak_etal1996,<null>
10163,Albania,<null>,VL-1127,42.2167,20.4833,0,0,300,0,19,0,2.3,<null>,<null>,45,<null>,1996,Cermak_etal1996,Cermak_etal1996,<null>
10164,Albania,<null>,VA-2,39.9167,20.05,0,2200,3200,0,19,0,2.3,<null>,<null>,44,<null>,1996,Cermak_etal1996,Cermak_etal1996,<null>
10165,Albania,<null>,KO-10,40.75,19.6667,0,0,3200,0,21,0,1.9,<null>,<null>,40,<null>,1996,Cermak_etal1996,Cermak_etal1996,<null>
10166,Albania,<null>,DIV-265,40.95,19.6,0,0,640,0,20,0,1.9,<null>,<null>,38,<null>,1996,Cermak_etal1996,Cermak_etal1996,<null>
10168,Albania,<null>,DIV-11,40.9667,19.6167,0,0,1900,0,18,0,2.2,<null>,<null>,37,<null>,1996,Cermak_etal1996,Cermak_etal1996,<null>
10169,Albania,<null>,KUC-8,40.8167,19.9833,0,0,0,0,14,0,1.9,<null>,<null>,36,<null>,1996,Cermak_etal1996,Cermak_etal1996,<null>
10170,Albania,<null>,FR-44,40.6333,19.5333,0,0,0,0,19,0,1.9,<null>,<null>,35,<null>,1996,Cermak_etal1996,Cermak_etal1996,<null>
10171,Albania,<null>,BUL-4,41.45,20.2167,0,0,440,0,12,0,2.85,<null>,<null>,35,<null>,1996,Cermak_etal1996,Cermak_etal1996,<null>
10172,Albania,<null>,BUT-1,39.7,20.0667,0,0,0,0,7,0,5,<null>,<null>,35,<null>,1996,Cermak_etal1996,Golubev1992,lake
10173,Albania,<null>,DIV-33,40.9667,19.6,0,0,1900,0,19,0,1.9,<null>,<null>,34,<null>,1996,Cermak_etal1996,Cermak_etal1996,<null>
10174,Albania,<null>,KM-1,40.8667,19.7,0,0,4000,0,18,0,2.2,<null>,<null>,34,<null>,1996,Cermak_etal1996,Cermak_etal1996,<null>
10175,Albania,<null>,PR-1,40.5333,20.15,0,0,200,0,16,0,2.1,<null>,<null>,33,<null>,1996,Cermak_etal1996,Cermak_etal1996,<null>
10176,Albania,<null>,BUB-6,40.7667,19.65,0,0,0,0,17,0,2.5,<null>,<null>,32,<null>,1996,Cermak_etal1996,Cermak_etal1996,<null>
10177,Albania,<null>,MA-1,40.7167,19.6667,0,0,0,0,17,0,1.9,<null>,<null>,32,<null>,1996,Cermak_etal1996,Cermak_etal1996,<null>
10178,Albania,<null>,KR-18,41.1167,19.5333,0,0,0,0,17,0,1.9,<null>,<null>,32,<null>,1996,Cermak_etal1996,Cermak_etal1996,<null>
10179,Albania,<null>,KR-10,41.15,19.5167,0,0,0,0,17,0,1.9,<null>,<null>,32,<null>,1996,Cermak_etal1996,Cermak_etal1996,<null>
10180,Albania,<null>,CA-12,40.5833,19.7167,0,0,0,0,15,0,2.2,<null>,<null>,32,<null>,1996,Cermak_etal1996,Cermak_etal1996,<null>
10181,Albania,<null>,AR-18,40.8,19.6333,0,500,1500,0,15,0,2.2,<null>,<null>,32,<null>,1996,Cermak_etal1996,Cermak_etal1996,<null>
10182,Albania,<null>,AM-8,40.4,19.75,0,200,300,0,15,0,2.2,<null>,<null>,32,<null>,1996,Cermak_etal1996,Cermak_etal1996,<null>
10183,Albania,<null>,VU-57,39.9,20.05,0,0,0,0,12,0,2.3,<null>,<null>,32,<null>,1996,Cermak_etal1996,Cermak_etal1996,<null>
10184,Albania,<null>,SEM-1,40.8333,19.4333,0,0,0,0,16,0,2.2,<null>,<null>,31,<null>,1996,Cermak_etal1996,Cermak_etal1996,<null>
10185,Albania,<null>,MO-31,40.55,19.7333,0,0,0,0,15,0,2.2,<null>,<null>,31,<null>,1996,Cermak_etal1996,Cermak_etal1996,<null>
10186,Albania,<null>,CA-17,40.5833,19.7333,0,0,0,0,15,0,2.2,<null>,<null>,31,<null>,1996,Cermak_etal1996,Cermak_etal1996,<null>
10187,Albania,<null>,KOM-967,42.0833,19.7667,0,0,360,0,12,0,2.5,<null>,<null>,31,<null>,1996,Cermak_etal1996,Cermak_etal1996,<null>
10188,Albania,<null>,SEL-4,40.5333,19.6667,0,0,0,0,16,0,1.9,<null>,<null>,30,<null>,1996,Cermak_etal1996,Cermak_etal1996,<null>
10189,Albania,<null>,PE-30,40.9833,19.8,0,0,0,0,16,0,1.9,<null>,<null>,30,<null>,1996,Cermak_etal1996,Cermak_etal1996,<null>
10190,Albania,<null>,AM-8,40.4,19.75,0,2300,2700,0,14,0,2.2,<null>,<null>,29,<null>,1996,Cermak_etal1996,Cermak_etal1996,<null>
10191,Albania,<null>,RU-M,41.7667,19.7667,0,0,560,0,12,0,2.5,<null>,<null>,29,<null>,1996,Cermak_etal1996,Cermak_etal1996,<null>
10192,Albania,<null>,ZV-3,40.5333,19.4,0,0,4000,0,13,0,2.2,<null>,<null>,29,<null>,1996,Cermak_etal1996,Cermak_etal1996,<null>
10193,Albania,<null>,PER-589,41.7167,20,0,0,450,0,16,0,1.8,<null>,<null>,28,<null>,1996,Cermak_etal1996,Cermak_etal1996,<null>
10194,Albania,<null>,GER-6,40.4333,19.65,0,0,0,0,14,0,2.2,<null>,<null>,28,<null>,1996,Cermak_etal1996,Cermak_etal1996,<null>
10196,Albania,<null>,GOR-1,40.7833,20,0,0,0,0,136,0,1.9,<null>,<null>,28,<null>,1996,Cermak_etal1996,Cermak_etal1996,<null>
10197,Albania,<null>,AMA-1,40.35,19.75,0,0,0,0,13,0,2.2,<null>,<null>,28,<null>,1996,Cermak_etal1996,Cermak_etal1996,<null>
10198,Albania,<null>,AR-18,40.8,19.6333,0,1500,6400,0,13,0,2.2,<null>,<null>,28,<null>,1996,Cermak_etal1996,Cermak_etal1996,<null>
10199,Albania,<null>,BALL-27,40.5667,19.8,0,0,3200,0,13,0,2.2,<null>,<null>,28,<null>,1996,Cermak_etal1996,Cermak_etal1996,<null>
10200,Albania,<null>,PO-3,40.7,19.4,0,1000,1900,0,13,0,2.2,<null>,<null>,28,<null>,1996,Cermak_etal1996,Cermak_etal1996,<null>
10201,Albania,<null>,GAL-2,40.95,20.1333,0,0,0,0,12,0,2.3,<null>,<null>,27,<null>,1996,Cermak_etal1996,Cermak_etal1996,<null>
10202,Albania,<null>,ISH-1B,41.5,19.6833,0,0,0,0,11,0,2.5,<null>,<null>,27,<null>,1996,Cermak_etal1996,Cermak_etal1996,<null>
10203,Albania,<null>,VU-14,39.8833,20.1,0,0,1900,0,14,0,2.1,<null>,<null>,25,<null>,1996,Cermak_etal1996,Cermak_etal1996,<null>
10204,Albania,<null>,BALL-50,41.0667,19.55,0,0,0,0,13,0,1.9,<null>,<null>,24,<null>,1996,Cermak_etal1996,Cermak_etal1996,<null>
10205,Albania,<null>,AM-8,40.4,19.75,0,800,1800,0,11,0,2.2,<null>,<null>,23,<null>,1996,Cermak_etal1996,Cermak_etal1996,<null>
10206,Albania,<null>,HY-1,40.4,19.7,0,0,0,0,11,0,2.2,<null>,<null>,23,<null>,1996,Cermak_etal1996,Cermak_etal1996,<null>
10207,Albania,<null>,DEL-4,39.9333,20.1333,0,2400,3800,0,10,0,2.3,<null>,<null>,23,<null>,1996,Cermak_etal1996,Cermak_etal1996,<null>
10208,Albania,<null>,VL-9,40.45,19.55,0,1900,2300,0,10,0,2.2,<null>,<null>,21,<null>,1996,Cermak_etal1996,Cermak_etal1996,<null>
10209,Albania,<null>,LA-2,41.3333,19.8833,0,0,0,0,9,0,2.3,<null>,<null>,21,<null>,1996,Cermak_etal1996,Cermak_etal1996,<null>
10210,Albania,<null>,ME-2,40.35,20.0833,0,0,0,0,9,0,2.5,<null>,<null>,21,<null>,1996,Cermak_etal1996,Cermak_etal1996,<null>
10211,Albania,<null>,TH-547,41.3333,20.2667,0,0,400,0,7,0,3.2,<null>,<null>,21,<null>,1996,Cermak_etal1996,Cermak_etal1996,<null>
10212,Albania,<null>,PO-3,40.7,19.4,0,100,800,0,7,0,2.2,<null>,<null>,15,<null>,1996,Cermak_etal1996,Cermak_etal1996,<null>
10213,Albania,<null>,GJE-2,42.1167,20.5167,0,0,200,0,7,0,1.8,<null>,<null>,13,<null>,1996,Cermak_etal1996,Cermak_etal1996,<null>
10214,Albania,<null>,VL-9,40.45,19.55,0,1100,1800,0,6,0,2.2,<null>,<null>,13,<null>,1996,Cermak_etal1996,Cermak_etal1996,<null>
10215,Albania,<null>,VE-1,42.5667,19.75,0,0,490,0,4,0,2.1,<null>,<null>,9,<null>,1996,Cermak_etal1996,Cermak_etal1996,<null>
10216,Albania,<null>,VL-9,40.45,19.55,0,200,1000,0,4,0,2.2,<null>,<null>,9,<null>,1996,Cermak_etal1996,Cermak_etal1996,<null>
10217,Albania,<null>,DEL-4,39.9333,20.1333,0,200,2000,0,3,0,2.3,<null>,<null>,7,<null>,1996,Cermak_etal1996,Cermak_etal1996,<null>
10218,Albania,<null>,TAR-1,42.0333,19.4667,0,0,490,0,4,0,1.8,<null>,<null>,6,<null>,1996,Cermak_etal1996,Cermak_etal1996,<null>
10219,Albania,<null>,VA-2,39.9167,20.05,0,400,1400,0,3,0,2.3,<null>,<null>,6,<null>,1996,Cermak_etal1996,Cermak_etal1996,<null>
10220,Albania,<null>,VU-30,39.8833,20.0667,0,0,470,0,2,0,2.1,<null>,<null>,5,<null>,1996,Cermak_etal1996,Cermak_etal1996,<null>
10221,Albania,<null>,NO-1,40.15,20.2,0,0,2000,0,1,0,2.3,<null>,<null>,3,<null>,1996,Cermak_etal1996,Cermak_etal1996,<null>
10222,Albania,<null>,KAL-3,39.8167,20.1667,0,0,2100,0,1,0,2.3,<null>,<null>,2,<null>,1996,Cermak_etal1996,Cermak_etal1996,<null>
10223,Albania,<null>,ER-2,40.1333,20.1167,0,0,1200,0,-2,0,2.3,<null>,<null>,-3,<null>,1996,Cermak_etal1996,Cermak_etal1996,<null>
11091,Arctic Ocean,<null>,<null>,69.2202,49.9266,0,0,0,0,0,0,0,<null>,<null>,32,<null>,2001,Verzhbitskii2001,Verzhbitskii2001,<null>
13296,Austria,<null>,Traunsee,47.8717,13.8017,-137,0,0,0,0,0,0,<null>,<null>,138,1,1973,Haenel&Zoth1973,Haenel&Zoth1973,lake (oceanic)
13297,Austria,<null>,Traunsee,47.8717,13.8017,-189,0,0,0,0,2,0.98,<null>,<null>,128,1,1973,Haenel&Zoth1973,Haenel&Zoth1973,lake (oceanic)
13298,Austria,<null>,Klopeiner See,46.6033,14.5833,-44,0,0,0,0,0,0,<null>,<null>,120,1,1973,Haenel&Zoth1973,Haenel&Zoth1973,lake (oceanic)
13299,Austria,<null>,Laengsee,46.79,14.425,-24,0,0,0,0,0,0,<null>,<null>,119,1,1973,Haenel&Zoth1973,Haenel&Zoth1973,lake (oceanic)
13300,Austria,<null>,Fuschlsee,47.8033,13.2767,-64,0,0,0,0,3,0.86,<null>,<null>,115,1,1973,Haenel&Zoth1973,Haenel&Zoth1973,lake (oceanic)
13301,Austria,<null>,Dornbirn,47.435,9.74,730,0,2820,2,0,1,0,<null>,<null>,115,1,1983,Bodmer1983,Bodmer1983,borehole
13302,Austria,<null>,Klopeiner See,46.6033,14.5833,-44,0,0,0,0,2,0.68,<null>,<null>,114,1,1973,Haenel&Zoth1973,Haenel&Zoth1973,lake (oceanic)
13303,Austria,<null>,Laengsee,46.79,14.425,-22,0,0,0,0,2,0.84,<null>,<null>,108,1,1973,Haenel&Zoth1973,Haenel&Zoth1973,lake (oceanic)
13304,Austria,<null>,Woerther See,46.6167,14.22,-64,0,0,0,0,2,0.71,<null>,<null>,105,1,1973,Haenel&Zoth1973,Haenel&Zoth1973,lake (oceanic)
13305,Austria,<null>,Plansee,47.4717,10.7983,-74,0,0,0,0,0,0,<null>,<null>,103,1,1973,Haenel&Zoth1973,Haenel&Zoth1973,lake (oceanic)
13306,Austria,<null>,Woerther See,46.6267,14.14,-84,0,0,0,0,2,0.74,<null>,<null>,99,1,1973,Haenel&Zoth1973,Haenel&Zoth1973,lake (oceanic)
13307,Austria,<null>,Achensee,47.45,11.7067,-121,0,0,0,0,2,1.19,<null>,<null>,97,1,1973,Haenel&Zoth1973,Haenel&Zoth1973,lake (oceanic)
13308,Austria,<null>,Plansee,47.4717,10.7983,-75,0,0,0,0,2,1.04,<null>,<null>,95,1,1973,Haenel&Zoth1973,Haenel&Zoth1973,lake (oceanic)
13309,Austria,<null>,Attersee,47.925,13.5667,-108,0,0,0,0,0,0.91,<null>,<null>,94,1,1973,Haenel&Zoth1973,Haenel&Zoth1973,lake (oceanic)
13310,Austria,<null>,Attersee,47.8983,13.555,-127,0,0,0,0,0,0.82,<null>,<null>,94,1,1973,Haenel&Zoth1973,Haenel&Zoth1973,lake (oceanic)
13311,Austria,<null>,Woerther See,46.6167,14.22,-70,0,0,0,0,0,0,<null>,<null>,92,1,1973,Haenel&Zoth1973,Haenel&Zoth1973,lake (oceanic)
13312,Austria,<null>,Fuschlsee,47.8033,13.2767,-64,0,0,0,0,0,0,<null>,<null>,92,1,1973,Haenel&Zoth1973,Haenel&Zoth1973,lake (oceanic)
13313,Austria,<null>,Zeller See,47.32,12.805,-68,0,0,0,0,0,0,<null>,<null>,91,1,1973,Haenel&Zoth1973,Haenel&Zoth1973,lake (oceanic)
13314,Austria,<null>,Woerther See,46.62,14.0783,-70,0,0,0,0,2,0.78,<null>,<null>,90,1,1973,Haenel&Zoth1973,Haenel&Zoth1973,lake (oceanic)
13315,Austria,<null>,Achensee,47.45,11.7067,-124,0,0,0,0,0,0,<null>,<null>,89,1,1973,Haenel&Zoth1973,Haenel&Zoth1973,lake (oceanic)
13316,Austria,<null>,Attersee,47.8167,13.5267,-165,0,0,0,0,0,0,<null>,<null>,89,1,1973,Haenel&Zoth1973,Haenel&Zoth1973,lake (oceanic)
13317,Austria,<null>,Achensee,47.4617,11.7067,-132,0,0,0,0,0,1.05,<null>,<null>,87,1,1973,Haenel&Zoth1973,Haenel&Zoth1973,lake (oceanic)
13318,Austria,<null>,Woerther See,46.6267,14.14,-44,0,0,0,0,0,0,<null>,<null>,86,1,1973,Haenel&Zoth1973,Haenel&Zoth1973,lake (oceanic)
13319,Austria,<null>,Attersee,47.8167,13.5267,-162,0,0,0,0,0,0.9,<null>,<null>,85,1,1973,Haenel&Zoth1973,Haenel&Zoth1973,lake (oceanic)
13320,Austria,<null>,Achensee,47.4817,11.7067,-131,0,0,0,0,0,1.05,<null>,<null>,85,1,1973,Haenel&Zoth1973,Clark1961; Haenel&Zoth1973,tunnel
13321,Austria,<null>,Woerther See,46.62,14.0783,-80,0,0,0,0,0,0,<null>,<null>,84,1,1973,Haenel&Zoth1973,Haenel&Zoth1973,lake (oceanic)
13322,Austria,<null>,Zeller See,47.32,12.805,-70,0,0,0,0,0,0.89,<null>,<null>,83,1,1973,Haenel&Zoth1973,Haenel&Zoth1973,lake (oceanic)
13323,Austria,<null>,Attersee,47.8533,13.54,-162,0,0,0,0,0,0.95,<null>,<null>,82,1,1973,Haenel&Zoth1973,Haenel&Zoth1973,lake (oceanic)
13324,Austria,<null>,Plansee,47.4583,10.78,-60,0,0,0,0,2,1.21,<null>,<null>,81,1,1973,Haenel&Zoth1973,Haenel&Zoth1973,lake (oceanic)
13325,Austria,<null>,Hechtsee,47.61,12.165,0,0,0,0,0,0,0,<null>,<null>,80,<null>,1991,Hurtig_etal1991,Hurtig_etal1991,<null>
13326,Austria,<null>,Millstaetter See,46.8083,13.5417,-98,0,0,0,0,0,0.8,<null>,<null>,78,1,1973,Haenel&Zoth1973,Haenel&Zoth1973,lake (oceanic)
13327,Austria,<null>,Plansee,47.4583,10.78,-60,0,0,0,0,0,0,<null>,<null>,74,1,1973,Haenel&Zoth1973,Haenel&Zoth1973,lake (oceanic)
13328,Austria,<null>,Weissensee,46.7117,13.3317,-45,0,0,0,0,0,0,<null>,<null>,73,1,1973,Haenel&Zoth1973,Haenel&Zoth1973,lake (oceanic)
13329,Austria,<null>,St. Wolfgang See,47.755,13.3867,-112,0,0,0,0,0,0,<null>,<null>,73,1,1973,Haenel&Zoth1973,Haenel&Zoth1973,lake (oceanic)
13330,Austria,<null>,Bernhartsthal,48.7,16.8333,0,0,0,0,39,0,1.88,<null>,<null>,73,1,1968,Boldizsar1968,Boldizsar1968,borehole
13331,Austria,<null>,Millstaetter See,46.7967,13.5817,-124,0,0,0,0,0,0.95,<null>,<null>,72,1,1973,Haenel&Zoth1973,Haenel&Zoth1973,lake (oceanic)
13332,Austria,<null>,Millstaetter See,46.755,13.6283,-134,0,0,0,0,0,0.97,<null>,<null>,70,1,1973,Haenel&Zoth1973,Haenel&Zoth1973,lake (oceanic)
13333,Austria,<null>,Hard 2,47.4983,9.6767,400,193,271,3,0,2,0,<null>,<null>,68,1,1983,Bodmer1983,Bodmer1983,borehole
13334,Austria,<null>,Hallstaetter See,47.58,13.6617,-124,0,0,0,0,0,0,<null>,<null>,68,1,1973,Haenel&Zoth1973,Haenel&Zoth1973,lake (oceanic)
13335,Austria,<null>,Toplitzsee,47.6583,13.9317,-62,0,0,0,0,3,0.7,<null>,<null>,67,1,1973,Haenel&Zoth1973,Haenel&Zoth1973,lake (oceanic)
13336,Austria,<null>,Toplitzsee,47.6583,13.9317,-97,0,0,0,0,0,0,<null>,<null>,67,1,1973,Haenel&Zoth1973,Haenel&Zoth1973,lake (oceanic)
13337,Austria,<null>,Maustrenk,48.5667,16.6833,0,0,0,0,36,0,1.88,<null>,<null>,67,1,1968,Boldizsar1968,Boldizsar1968,borehole
13338,Austria,<null>,Toplitzsee,47.6583,13.9317,-62,0,0,0,0,0,0,<null>,<null>,67,1,1973,Haenel&Zoth1973,Haenel&Zoth1973,lake (oceanic)
13339,Austria,<null>,St. Wolfgang See,47.755,13.3867,-110,0,0,0,0,0,0,<null>,<null>,67,1,1973,Haenel&Zoth1973,Haenel&Zoth1973,lake (oceanic)
13340,Austria,<null>,Weissensee,46.7033,13.3633,-70,0,0,0,0,0,0.86,<null>,<null>,66,1,1973,Haenel&Zoth1973,Haenel&Zoth1973,lake (oceanic)
13341,Austria,<null>,St. Wolfgang See,47.755,13.3867,-112,0,0,0,0,0,0,<null>,<null>,64,1,1973,Haenel&Zoth1973,Haenel&Zoth1973,lake (oceanic)
13342,Austria,<null>,Tallesbrunn,48.3667,16.8,0,0,0,0,34,0,1.88,<null>,<null>,64,1,1968,Boldizsar1968,Boldizsar1968,borehole
13343,Austria,<null>,Hallstaetter See,47.5583,13.6567,-102,0,0,0,0,2,0.92,<null>,<null>,64,1,1973,Haenel&Zoth1973,Haenel&Zoth1973,lake (oceanic)
13344,Austria,<null>,Hallstaetter See,47.58,13.6617,-124,0,0,0,0,2,1.03,<null>,<null>,62,1,1973,Haenel&Zoth1973,Haenel&Zoth1973,lake (oceanic)
13345,Austria,<null>,Schoenkirchen T2,48.35,16.6833,0,0,0,0,32,0,1.88,<null>,<null>,61,1,1968,Boldizsar1968,Boldizsar1968,borehole
13346,Austria,<null>,Tauren (Bo),47.2,13.4333,0,0,0,0,0,0,0,<null>,<null>,60,<null>,1991,Hurtig_etal1991,Hurtig_etal1991,<null>
13347,Austria,<null>,<null>,48.0833,16.4333,0,0,0,0,32,0,1.88,<null>,<null>,60,1,1968,Boldizsar1968,Boldizsar1968,borehole
13348,Austria,<null>,<null>,48.0833,16.6,0,0,0,0,32,0,1.88,<null>,<null>,60,1,1968,Boldizsar1968,Boldizsar1968,borehole
13349,Austria,<null>,<null>,48.3167,16.85,0,0,0,0,32,0,1.88,<null>,<null>,60,1,1968,Boldizsar1968,Boldizsar1968,borehole
13350,Austria,<null>,<null>,48.3167,16.55,0,0,0,0,32,0,1.88,<null>,<null>,59,1,1968,Boldizsar1968,Boldizsar1968,borehole
13351,Austria,<null>,<null>,48.3167,16.5667,0,0,0,0,32,0,1.88,<null>,<null>,59,1,1968,Boldizsar1968,Boldizsar1968,borehole
13352,Austria,<null>,Hallstaetter See,47.5583,13.6567,-112,0,0,0,0,0,0,<null>,<null>,59,1,1973,Haenel&Zoth1973,Haenel&Zoth1973,lake (oceanic)
13353,Austria,<null>,Ginzersdorf,48.6,16.7,0,0,0,0,31,0,1.88,<null>,<null>,58,1,1968,Boldizsar1968,Boldizsar1968,borehole
13354,Austria,<null>,Weissensee,46.7033,13.3633,-71,0,0,0,0,2,0.85,<null>,<null>,57,1,1973,Haenel&Zoth1973,Haenel&Zoth1973,lake (oceanic)
13355,Austria,<null>,Raggendorf,48.3833,16.7667,0,0,0,0,29,0,1.88,<null>,<null>,55,1,1968,Boldizsar1968,Boldizsar1968,borehole
13356,Austria,<null>,<null>,48.4333,16.6833,0,0,0,0,29,0,1.88,<null>,<null>,55,1,1968,Boldizsar1968,Boldizsar1968,borehole
13357,Austria,<null>,<null>,48.4667,16.7667,0,0,0,0,29,0,1.88,<null>,<null>,55,1,1968,Boldizsar1968,Boldizsar1968,borehole
13358,Austria,<null>,Fuschlsee,47.8033,13.2767,-63,0,0,0,0,0,0,<null>,<null>,55,1,1973,Haenel&Zoth1973,Haenel&Zoth1973,lake (oceanic)
13359,Austria,<null>,Mondsee,47.8083,13.3917,-63,0,0,0,0,2,0.9,<null>,<null>,54,1,1973,Haenel&Zoth1973,Haenel&Zoth1973,lake (oceanic)
13360,Austria,<null>,Altlichbenwarth,48.65,16.7833,0,0,0,0,28,0,1.88,<null>,<null>,53,1,1968,Boldizsar1968,Boldizsar1968,borehole
13361,Austria,<null>,Maxbergen,48.65,16.75,0,0,0,0,28,0,1.88,<null>,<null>,53,1,1968,Boldizsar1968,Boldizsar1968,borehole
13362,Austria,<null>,Walterskirschen,48.65,16.6833,0,0,0,0,28,0,1.88,<null>,<null>,53,1,1968,Boldizsar1968,Boldizsar1968,borehole
13363,Austria,<null>,Muehlberg,48.6667,16.8167,0,0,0,0,28,0,1.88,<null>,<null>,53,1,1968,Boldizsar1968,Boldizsar1968,borehole
13364,Austria,<null>,Pirawarth,48.45,16.6,0,0,0,0,27,0,1.88,<null>,<null>,51,1,1968,Boldizsar1968,Boldizsar1968,borehole
13365,Austria,<null>,Belz,50.3333,23.9167,0,0,0,0,25,0,0,<null>,<null>,50,<null>,0,Boldizsar1968; Shushpanov1966 (102),Boldizsar1968; Shushpanov1966 (102),<null>
13366,Austria,<null>,Mondsee,47.8083,13.3917,-63,0,0,0,0,0,0,<null>,<null>,50,1,1973,Haenel&Zoth1973,Haenel&Zoth1973,lake (oceanic)
13367,Austria,<null>,Goesting/Zistersdorf,48.5667,16.7667,0,0,0,0,27,0,1.88,<null>,<null>,50,1,1968,Boldizsar1968,Boldizsar1968,borehole
13368,Austria,<null>,<null>,48.5,16.7,0,0,0,0,26,0,1.88,<null>,<null>,49,1,1968,Boldizsar1968,Boldizsar1968,borehole
13369,Austria,<null>,Altausseer See,47.6417,13.7867,-52,0,0,0,0,0,0.94,<null>,<null>,49,1,1973,Haenel&Zoth1973,Haenel&Zoth1973,lake (oceanic)
13370,Austria,<null>,Bleiberg,46.65,12.6333,0,0,0,0,0,0,0,<null>,<null>,47,<null>,1991,Hurtig_etal1991,Boldizsar1968,borehole
13371,Austria,<null>,Wildendurnbach,48.75,16.4667,0,0,0,0,23,0,1.88,<null>,<null>,43,1,1968,Boldizsar1968,Haenel&Zoth1973,lake (oceanic)
13372,Austria,<null>,Walchsee,47.6467,12.3283,0,0,0,0,0,0,0,<null>,<null>,40,<null>,1991,Hurtig_etal1991,Hurtig_etal1991,<null>
13373,Austria,<null>,Mittersill,47.2,12.4833,0,0,0,0,0,0,0,<null>,<null>,38,<null>,1991,Hurtig_etal1991,Hurtig_etal1991,<null>
13374,Austria,<null>,Ulitsno,49,23.6667,0,0,0,0,18,0,0,<null>,<null>,33,<null>,0,Boldizsar1968; Shushpanov1966 (102),Cermak_etal1996,<null>
13375,Austria,<null>,Arlberg,47.15,10.1333,1300,0,0,12,14,15,4.6,<null>,<null>,0,1,0,Clark1961; Haenel&Zoth1973,Boldizsar1968; Shushpanov1966 (102),<null>
13376,Austria,<null>,Tauern,47.0333,13.15,1200,0,0,11,14,27,3.28,<null>,<null>,0,1,0,Clark1961; Haenel&Zoth1973,Clark1961; Haenel&Zoth1973,tunnel
13478,Barents Sea,<null>,Severnaya,81.1136,64.2041,0,0,0,0,0,0,0,<null>,<null>,80,<null>,2009,Khutorskoi_etal2009,Khutorskoi_etal2009,borehole
13482,Barents Sea,<null>,Heisa,80.5393,57.5464,0,0,0,0,0,0,0,<null>,<null>,77,<null>,2009,Khutorskoi_etal2009,Khutorskoi_etal2009,borehole
14014,Bulgaria,<null>,Erma reka (over 50 wells),41.4,25.0333,290,700,1500,0,130,123,3.4,<null>,<null>,440,>50,2008,Bojadgieva2008,Bojadgieva2008,<null>
14015,Bulgaria,<null>,Laki-Tchetroka 3a,41.7,24.7333,0,200,500,0,47,0,3.4,<null>,<null>,160,1,2008,Bojadgieva2008,Hurtig_etal1991,<null>
14016,Bulgaria,<null>,Kazichane R-2/R-3/R-4/R-6,42.6667,23.4833,549,100,500,0,100,0,1.4,<null>,<null>,140,4,2008,Bojadgieva2008,Bojadgieva2008,<null>
14017,Bulgaria,<null>,Petrich HG-11,41.4,23.2167,209,400,500,0,44,0,3.1,<null>,<null>,136,1,2008,Bojadgieva2008,Bojadgieva2008,<null>
14018,Bulgaria,<null>,28,42.2667,23.8833,840,300,600,0,53,0,2.4,<null>,<null>,127,1,1983,Velinov&Boyadgieva1983,Velinov&Boyadgieva1983,borehole
14019,Bulgaria,<null>,Sarnitsa C-231,41.8667,25.3,411,200,600,0,54,0,2.3,<null>,<null>,123,1,2008,Bojadgieva2008,Bojadgieva2008,<null>
14020,Bulgaria,<null>,Muletarovo HG-1,41.45,23.25,146,200,500,0,40,0,3,<null>,<null>,120,1,2008,Bojadgieva2008,Bojadgieva2008,<null>
14021,Bulgaria,<null>,Batantsi C-628,41.5,24.95,913,200,500,0,36,0,3.4,<null>,<null>,108,1,2008,Bojadgieva2008,Bojadgieva2008,<null>
14022,Bulgaria,<null>,Krajnitsi HG-30,42.3333,23.2167,590,200,500,0,32,0,3.1,<null>,<null>,99,1,2008,Bojadgieva2008,Bojadgieva2008,<null>
14023,Bulgaria,<null>,Dobroslavtsi HG-2,42.8333,23.3,610,200,400,0,68,0,1.4,<null>,<null>,95,1,2008,Bojadgieva2008,Bojadgieva2008,<null>
14024,Bulgaria,<null>,Laki-kenan dere 904,41.8333,24.85,913,200,500,0,28,0,3.4,<null>,<null>,95,1,2008,Bojadgieva2008,Bojadgieva2008,<null>
14025,Bulgaria,<null>,Laskarevo C-24,41.55,23.35,292,200,700,0,47,0,2,<null>,<null>,94,1,2008,Bojadgieva2008,Bojadgieva2008,<null>
14026,Bulgaria,<null>,Djebel HG-4,41.5,25.3167,312,800,1100,0,30,0,3.1,<null>,<null>,93,1,2008,Bojadgieva2008,Bojadgieva2008,<null>
14027,Bulgaria,<null>,Jakoruda GH-11,42.0333,23.6833,1198,300,500,0,34,0,2.7,<null>,<null>,92,1,2008,Bojadgieva2008,Bojadgieva2008,<null>
14028,Bulgaria,<null>,Lenovo HG-23,41.95,25.0833,306,200,400,0,33,0,2.8,<null>,<null>,92,1,2008,Bojadgieva2008,Bojadgieva2008,<null>
14029,Bulgaria,<null>,Smoljan HG-3/C-10,41.5833,24.6833,1092,100,600,0,35,0,2.6,<null>,<null>,91,2,2008,Bojadgieva2008,Bojadgieva2008,<null>
14030,Bulgaria,<null>,Sevlievo R-1/R-27,43.0167,25.15,231,400,1600,0,33,5,2.7,<null>,<null>,90,2,2008,Bojadgieva2008,Bojadgieva2008,<null>
14031,Bulgaria,<null>,Zvezdel C-4,41.3833,25.5333,618,200,500,0,29,5,3.1,<null>,<null>,90,1,2008,Bojadgieva2008,Bojadgieva2008,<null>
14032,Bulgaria,<null>,Dolno Vlahovo HG-2 (Smoljan district),41.55,24.6333,0,300,500,0,29,0,3.1,<null>,<null>,90,1,2008,Bojadgieva2008,Bojadgieva2008,<null>
14033,Bulgaria,<null>,Gorsko Slivovo R-5,43.25,25.1167,208,200,1200,0,37,0,2.4,<null>,<null>,89,1,2008,Bojadgieva2008,Bojadgieva2008,<null>
14034,Bulgaria,<null>,Maritsa C-2 (Simeonovgrad),42.15,25.8833,152,300,500,0,33,0,2.7,<null>,<null>,89,1,2008,Bojadgieva2008,Bojadgieva2008,<null>
14035,Bulgaria,<null>,Kavlak R-1,43.1833,26.0667,420,500,1300,0,33,0,2.7,<null>,<null>,89,1,2008,Bojadgieva2008,Bojadgieva2008,<null>
14036,Bulgaria,<null>,Balsha 858,42.85,23.2833,670,200,500,0,63,0,1.4,<null>,<null>,88,1,2008,Bojadgieva2008,Bojadgieva2008,<null>
14037,Bulgaria,<null>,Dolen Dabnik R-12/R-13/R-15/R-16/R-18,43.4,24.4667,85,700,1700,0,28,0,2.4,<null>,<null>,87,5,2008,Bojadgieva2008,Bojadgieva2008,<null>
14038,Bulgaria,<null>,Kromidovo HG-2,41.4667,23.3833,216,200,800,0,54,0,1.6,<null>,<null>,86,1,2008,Bojadgieva2008,Bojadgieva2008,<null>
14039,Bulgaria,<null>,Zlatar R-2,43.0833,26.95,131,300,800,0,36,0,2.4,<null>,<null>,86,1,2008,Bojadgieva2008,Bojadgieva2008,<null>
14040,Bulgaria,<null>,Umarevtsi R-1,43.2,24.7833,139,1000,2000,0,36,2,2.4,<null>,<null>,86,1,2008,Bojadgieva2008,Bojadgieva2008,<null>
14041,Bulgaria,<null>,Gorna Orjahovitsa R-8,43.0833,25.75,188,400,1400,0,32,0,2.7,<null>,<null>,86,1,2008,Bojadgieva2008,Bojadgieva2008,<null>
14042,Bulgaria,<null>,Preslavtsi R-1,43.9167,26.7,91,1300,2900,0,25,12,3.4,<null>,<null>,85,1,2008,Bojadgieva2008,Bojadgieva2008,<null>
14043,Bulgaria,<null>,Gara Pirin HG-2,42.7167,23.1833,166,200,600,0,40,0,2.1,<null>,<null>,84,1,2008,Bojadgieva2008,Bojadgieva2008,<null>
14044,Bulgaria,<null>,Devetaki R-2,43.2333,24.9,268,600,1600,0,35,0,2.4,<null>,<null>,84,1,2008,Bojadgieva2008,Bojadgieva2008,<null>
14045,Bulgaria,<null>,Belitsa HG-7,41.95,23.5667,914,200,700,0,27,0,3.1,<null>,<null>,84,1,2008,Bojadgieva2008,Bojadgieva2008,<null>
14046,Bulgaria,<null>,8,41.7167,23.1833,166,300,800,0,38,0,2,<null>,<null>,83,1,1983,Velinov&Boyadgieva1983,Bojadgieva2008,<null>
14047,Bulgaria,<null>,Davidkovo C-1145 (Kokoshkata),41.6833,24.9833,913,200,700,0,32,0,2.6,<null>,<null>,83,1,2008,Bojadgieva2008,Bojadgieva2008,<null>
14048,Bulgaria,<null>,Ivajlovgrad HG-3,41.5333,26.1333,149,400,1100,0,26,5,3.2,<null>,<null>,83,1,2008,Bojadgieva2008,Bojadgieva2008,<null>
14049,Bulgaria,<null>,Goljamo Peshtene R-10,43.3167,23.7167,248,800,1800,0,34,0,2.4,<null>,<null>,82,1,2008,Bojadgieva2008,Bojadgieva2008,<null>
14050,Bulgaria,<null>,Glava R-2,43.3833,24.2167,65,800,2200,0,34,0,2.4,<null>,<null>,82,1,2008,Bojadgieva2008,Bojadgieva2008,<null>
14051,Bulgaria,<null>,Tchiren R-4/R-19,43.35,23.5833,253,400,900,0,31,0,2.7,<null>,<null>,82,2,2008,Bojadgieva2008,Bojadgieva2008,<null>
14052,Bulgaria,<null>,Asenovgrad HG-4,42.0167,24.8833,293,600,900,0,29,0,2.8,<null>,<null>,81,1,2008,Bojadgieva2008,Bojadgieva2008,<null>
14053,Bulgaria,<null>,Debnevo R-1,42.95,24.8667,312,400,2000,0,29,3,2.8,<null>,<null>,81,1,2008,Bojadgieva2008,Bojadgieva2008,<null>
14054,Bulgaria,<null>,Ardino sector HG-1 (Davidkovo),41.5833,25.15,934,200,600,0,28,0,2.9,<null>,<null>,81,1,2008,Bojadgieva2008,Bojadgieva2008,<null>
14055,Bulgaria,<null>,Ajtos C-13/B-18,42.7,27.2667,152,200,500,0,38,0,2.1,<null>,<null>,80,2,2008,Bojadgieva2008,Bojadgieva2008,<null>
14056,Bulgaria,<null>,Lozen 639/644/684,41.8167,26.05,150,200,600,0,31,0,2.6,<null>,<null>,80,3,2008,Bojadgieva2008,Bojadgieva_etal1991,<null>
14057,Bulgaria,<null>,Kremikovtsi 584,42.7333,23.5667,600,200,400,0,36,0,2.2,<null>,<null>,79,1,2008,Bojadgieva2008,Bojadgieva2008,<null>
14058,Bulgaria,<null>,Ponora R-52,43.3,23.55,287,700,1600,0,33,0,2.4,<null>,<null>,79,1,2008,Bojadgieva2008,Bojadgieva2008,<null>
14059,Bulgaria,<null>,Veslets R-1/R-4,43.3,23.8,308,400,1800,0,33,0,2.4,<null>,<null>,79,2,2008,Bojadgieva2008,Bojadgieva2008,<null>
14060,Bulgaria,<null>,Zamfirovo R-1,43.3,23.2333,305,800,1800,0,33,4,2.4,<null>,<null>,79,1,2008,Bojadgieva2008,Bojadgieva2008,<null>
14061,Bulgaria,<null>,Pelovo R-1,43.4333,24.2667,149,700,1700,0,33,0,2.4,<null>,<null>,79,1,2008,Bojadgieva2008,Bojadgieva2008,<null>
14062,Bulgaria,<null>,Hajredin R-1,43.6333,23.7333,142,1600,3900,0,33,5,2.4,<null>,<null>,79,1,2008,Bojadgieva2008,Bojadgieva2008,<null>
14063,Bulgaria,<null>,Rasovo R-1,43.6667,23.25,157,1300,2800,0,33,0,2.4,<null>,<null>,79,1,2008,Bojadgieva2008,Bojadgieva2008,<null>
14064,Bulgaria,<null>,Sliven C-2,42.6833,26.3333,295,200,1000,0,34,0,2.3,<null>,<null>,78,1,2008,Bojadgieva2008,Bojadgieva2008,<null>
14065,Bulgaria,<null>,Beli Izvor R-25,43.2667,23.6,322,600,1500,0,29,2,2.7,<null>,<null>,78,1,2008,Bojadgieva2008,Bojadgieva2008,<null>
14066,Bulgaria,<null>,Madgarvovo,41.5833,25.9167,133,200,600,2,0,0,0,<null>,<null>,78,<null>,1991,Bojadgieva_etal1991,Bojadgieva2008,<null>
14067,Bulgaria,<null>,Rila HG-11,42.1333,23.15,607,200,700,0,32,0,2.4,<null>,<null>,77,1,2008,Bojadgieva2008,Bojadgieva2008,<null>
14068,Bulgaria,<null>,Tuchenitsa R-2,43.3333,24.7,244,600,1600,0,32,0,2.4,<null>,<null>,77,1,2008,Bojadgieva2008,Bojadgieva2008,<null>
14069,Bulgaria,<null>,Dobrolevo R-3,43.4833,23.8,159,1200,3000,0,32,0,2.4,<null>,<null>,77,1,2008,Bojadgieva2008,Bojadgieva2008,<null>
14070,Bulgaria,<null>,Kneja R-3,43.5,24.15,138,800,1800,0,32,0,2.4,<null>,<null>,77,1,2008,Bojadgieva2008,Bojadgieva2008,<null>
14071,Bulgaria,<null>,Sultantsi R-13,43.0833,27.5333,14,200,700,0,31,0,2.4,<null>,<null>,77,1,2008,Bojadgieva2008,Bojadgieva2008,<null>
14072,Bulgaria,<null>,Orehovo HG-1 (Hvojna),41.8667,24.6167,1008,300,900,0,36,0,2.1,<null>,<null>,76,1,2008,Bojadgieva2008,Bojadgieva2008,<null>
14073,Bulgaria,<null>,Hvojna,41.8167,24.7833,696,300,900,1,0,0,0,<null>,<null>,76,<null>,1991,Bojadgieva_etal1991,Bojadgieva2008,<null>
14074,Bulgaria,<null>,Sofia-Psihiatria/4km,42.6667,23.3667,560,600,900,0,34,0,2.2,<null>,<null>,75,1,2008,Bojadgieva2008,Bojadgieva2008,<null>
14075,Bulgaria,<null>,Melnik C-23/C-554,41.5333,23.4,500,200,500,0,30,0,2.5,<null>,<null>,75,2,2008,Bojadgieva2008,Bojadgieva2008,<null>
14076,Bulgaria,<null>,Komoshtitsa R-3,43.7167,23.35,101,1200,3200,0,30,8,2.5,<null>,<null>,75,1,2008,Bojadgieva2008,Bojadgieva2008,<null>
14077,Bulgaria,<null>,Kovatchitsa R-1,43.7833,23.4,98,1600,3000,0,30,7,2.5,<null>,<null>,75,1,2008,Bojadgieva2008,Bojadgieva2008,<null>
14078,Bulgaria,<null>,Borovtsi R-1,43.3,23.1667,232,400,1400,0,25,3,3,<null>,<null>,75,1,2008,Bojadgieva2008,Bojadgieva2008,<null>
14079,Bulgaria,<null>,Drashan R-5,43.25,23.8833,430,600,2000,0,31,0,2.4,<null>,<null>,74,1,2008,Bojadgieva2008,Bojadgieva2008,<null>
14080,Bulgaria,<null>,Pisarovo R-2,43.3667,24.3,180,600,2000,0,31,0,2.4,<null>,<null>,74,1,2008,Bojadgieva2008,Bojadgieva2008,<null>
14081,Bulgaria,<null>,Grivitsa R-2,43.4,24.7833,289,600,1600,0,31,1,2.4,<null>,<null>,74,1,2008,Bojadgieva2008,Bojadgieva2008,<null>
14082,Bulgaria,<null>,Ptchelojad C-6/C-771/C-777,41.3833,25.55,450,200,800,0,29,22,2.6,<null>,<null>,74,3,2008,Bojadgieva2008,Bojadgieva2008,<null>
14083,Bulgaria,<null>,Belo pole R-1,43.6667,22.8833,181,1100,2300,0,28,0,2.6,<null>,<null>,73,1,2008,Bojadgieva2008,Bojadgieva2008,<null>
14084,Bulgaria,<null>,Tarnovo R-12,43.1,25.5333,161,400,2000,0,27,0,2.7,<null>,<null>,73,1,2008,Bojadgieva2008,Bojadgieva2008,<null>
14085,Bulgaria,<null>,Bozveli R-9,43.0833,27.4667,159,400,1100,0,30,0,2.4,<null>,<null>,72,1,2008,Bojadgieva2008,Bojadgieva2008,<null>
14086,Bulgaria,<null>,Bardarski geran R-1/R-2/R-7/R-8,43.55,24.05,134,600,2000,0,30,1,2.4,<null>,<null>,72,4,2008,Bojadgieva2008,Bojadgieva2008,<null>
14087,Bulgaria,<null>,Marash R-1,43.1833,26.95,109,400,1400,0,29,0,2.5,<null>,<null>,72,1,2008,Bojadgieva2008,Bojadgieva2008,<null>
14088,Bulgaria,<null>,Jambol J-45,42.4833,26.5167,152,100,300,0,34,0,2.1,<null>,<null>,71,1,2008,Bojadgieva2008,Bojadgieva2008,<null>
14089,Bulgaria,<null>,Sofronievo R-1,43.6,23.8,88,1600,3400,0,31,0,2.3,<null>,<null>,71,1,2008,Bojadgieva2008,Bojadgieva2008,<null>
14090,Bulgaria,<null>,Dolni Lukovit R-2/R-5/R-10,43.5333,24.2167,69,700,1700,0,30,0,2.4,<null>,<null>,71,3,2008,Bojadgieva2008,Bojadgieva2008,<null>
14092,Bulgaria,<null>,Beglej R-2,43.2333,24.5,231,600,2000,0,29,5,2.4,<null>,<null>,70,1,2008,Bojadgieva2008,Bojadgieva2008,<null>
14093,Bulgaria,<null>,Orsoja R-1,43.7833,23.1667,138,1100,2700,0,29,0,2.4,<null>,<null>,70,1,2008,Bojadgieva2008,Bojadgieva_etal1991,<null>
14094,Bulgaria,<null>,Bukak R-2,43.0333,26.1667,701,400,1900,0,28,0,2.5,<null>,<null>,70,1,2008,Bojadgieva2008,Bojadgieva2008,<null>
14095,Bulgaria,<null>,Trjavna G-2,42.8833,25.5,610,200,500,0,26,0,2.7,<null>,<null>,70,1,2008,Bojadgieva2008,Bojadgieva2008,<null>
14096,Bulgaria,<null>,Glavatsi R-30,43.2667,22.3833,199,600,1600,0,26,0,2.7,<null>,<null>,70,1,2008,Bojadgieva2008,Bojadgieva2008,<null>
14097,Bulgaria,<null>,Orjahovo R-1,43.7,24,138,2200,3400,0,25,6,2.8,<null>,<null>,70,1,2008,Bojadgieva2008,Bojadgieva2008,<null>
14098,Bulgaria,<null>,Elin Pelin R-1,42.6667,23.6167,610,200,800,0,49,0,1.4,<null>,<null>,69,1,2008,Bojadgieva2008,Bojadgieva2008,<null>
14099,Bulgaria,<null>,Dupnitsa HG-43 (Stanke Dimitrov),42.2667,23.1333,610,200,600,0,34,0,2,<null>,<null>,69,1,2008,Bojadgieva2008,Bojadgieva2008,<null>
14100,Bulgaria,<null>,Tchelopech C-300/C-500,42.7167,24.1,842,400,1000,0,30,5,2.3,<null>,<null>,69,2,2008,Bojadgieva2008,Bojadgieva2008,<null>
14101,Bulgaria,<null>,Karnobat B-7,42.65,26.9833,305,100,500,0,33,0,2.1,<null>,<null>,68,1,2008,Bojadgieva2008,Bojadgieva2008,<null>
14102,Bulgaria,<null>,97,43.85,27.2333,219,1000,2200,0,25,0,2.7,<null>,<null>,68,1,1983,Velinov&Boyadgieva1983,Velinov&Boyadgieva1983,borehole
14103,Bulgaria,<null>,Blagocvo R-1,43.35,23.25,265,600,1200,0,28,1,2.4,<null>,<null>,67,1,2008,Bojadgieva2008,Bojadgieva2008,<null>
14104,Bulgaria,<null>,Mirovo R-21,43.1167,27.45,78,200,500,0,27,0,2.5,<null>,<null>,67,1,2008,Bojadgieva2008,Bojadgieva2008,<null>
14105,Bulgaria,<null>,Borov dol 238,42.7333,26.0833,611,200,400,0,24,0,2.8,<null>,<null>,67,1,2008,Bojadgieva2008,Bojadgieva2008,<null>
14106,Bulgaria,<null>,Dolni Voden HG-1 (Asenovgrad district),41.9833,24.8833,0,300,800,0,33,0,2,<null>,<null>,66,1,2008,Bojadgieva2008,Bojadgieva2008,<null>
14107,Bulgaria,<null>,Resen 1157 (Tcherveno zname pit),42.3833,27.5833,152,300,800,0,30,0,2.2,<null>,<null>,66,1,2008,Bojadgieva2008,Bojadgieva2008,<null>
14108,Bulgaria,<null>,Pesovets C-15,42.4333,24.2667,450,200,700,0,30,0,2.2,<null>,<null>,66,1,2008,Bojadgieva2008,Bojadgieva2008,<null>
14109,Bulgaria,<null>,Dalgodeltsi R-1,43.6167,23.3,125,2200,4600,0,26,12,2.5,<null>,<null>,66,1,2008,Bojadgieva2008,Bojadgieva2008,<null>
14110,Bulgaria,<null>,Goljam Izvor R-1,42.9167,24.9167,549,400,1000,0,27,0,2.4,<null>,<null>,65,1,2008,Bojadgieva2008,Bojadgieva2008,<null>
14111,Bulgaria,<null>,Galovo R-1/R-30,43.6167,24.0667,153,800,1800,0,27,0,2.4,<null>,<null>,65,2,2008,Bojadgieva2008,Bojadgieva2008,<null>
14112,Bulgaria,<null>,Brest R-3,43.65,24.5833,19,200,1000,0,27,0,2.4,<null>,<null>,65,1,2008,Bojadgieva2008,Bojadgieva2008,<null>
14113,Bulgaria,<null>,Svirkovo 1,42.0333,25.9333,152,100,300,0,24,0,2.7,<null>,<null>,65,1,2008,Bojadgieva2008,Bojadgieva2008,<null>
14114,Bulgaria,<null>,Starosel HG-1,42.5,24.5833,453,100,300,0,24,0,2.7,<null>,<null>,65,1,2008,Bojadgieva2008,Bojadgieva2008,<null>
14115,Bulgaria,<null>,Lesovo 208,42,26.5833,153,300,500,0,19,0,3.4,<null>,<null>,65,1,2008,Bojadgieva2008,Bojadgieva2008,<null>
14116,Bulgaria,<null>,Srebarno kolo 2-Osogovo,42.2167,22.65,1630,200,400,0,28,6,2.3,<null>,<null>,64,1,2008,Bojadgieva2008,Bojadgieva2008,<null>
14117,Bulgaria,<null>,Dimitrovgrad 1411/1420/1505/1512/1514/1516/1520,42.0667,25.6,152,100,300,0,45,0,1.4,<null>,<null>,63,7,2008,Bojadgieva2008,Bojadgieva2008,<null>
14118,Bulgaria,<null>,Elena R-6,42.95,25.8833,223,500,2500,0,25,0,2.5,<null>,<null>,63,1,2008,Bojadgieva2008,Bojadgieva2008,<null>
14119,Bulgaria,<null>,Omutrag R-1,43.1167,26.3833,507,400,1000,0,25,0,2.5,<null>,<null>,63,1,2008,Bojadgieva2008,Bojadgieva2008,<null>
14120,Bulgaria,<null>,13,41.85,23.15,495,350,600,0,31,0,2,<null>,<null>,62,1,1983,Velinov&Boyadgieva1983,Velinov&Boyadgieva1983,borehole
14121,Bulgaria,<null>,Komunari R-1,42.9833,27.2833,140,400,1400,0,26,0,2.4,<null>,<null>,62,1,2008,Bojadgieva2008,Bojadgieva2008,<null>
14122,Bulgaria,<null>,Samotino R-54,42.95,27.8667,114,2300,3400,0,24,14,2.6,<null>,<null>,62,1,2008,Bojadgieva2008,Bojadgieva2008,<null>
14123,Bulgaria,<null>,Kozlodui R-13,43.7167,23.6333,119,2000,2600,0,24,2,2.6,<null>,<null>,62,1,2008,Bojadgieva2008,Bojadgieva2008,<null>
14124,Bulgaria,<null>,Alexandrovo B-37,42.9833,26.9833,300,200,500,0,29,0,2.1,<null>,<null>,61,1,2008,Bojadgieva2008,Bojadgieva2008,<null>
14125,Bulgaria,<null>,52,42.9167,24.1333,549,200,1000,0,26,0,2.4,<null>,<null>,61,1,1983,Velinov&Boyadgieva1983,Velinov&Boyadgieva1983,borehole
14126,Bulgaria,<null>,Ustrem C-133/C-270,42.0333,26.4667,152,200,500,0,18,0,3.4,<null>,<null>,61,2,2008,Bojadgieva2008,Bojadgieva2008,<null>
14127,Bulgaria,<null>,38,42.5,27.35,0,400,800,0,30,0,1.98,<null>,<null>,60,1,1983,Velinov&Boyadgieva1983,Velinov&Boyadgieva1983,borehole
14128,Bulgaria,<null>,Toplika HG-8 (Panagjurishte ore field),42.4667,24.35,420,200,600,0,25,0,2.4,<null>,<null>,60,1,2008,Bojadgieva2008,Bojadgieva2008,<null>
14129,Bulgaria,<null>,Junak R-1,43.0667,27.6167,69,600,1600,0,25,1,2.4,<null>,<null>,60,1,2008,Bojadgieva2008,Bojadgieva2008,<null>
14130,Bulgaria,<null>,Preslav R-2,43.15,26.8333,1600,180,340,0,25,0,2.4,<null>,<null>,60,1,2008,Bojadgieva2008,Bojadgieva2008,<null>
14131,Bulgaria,<null>,Starja R-10,43.1667,26.55,527,900,2000,0,23,0,2.5,<null>,<null>,60,1,2008,Bojadgieva2008,Bojadgieva2008,<null>
14132,Bulgaria,<null>,Gorno Luikovo 2,41.3667,26.1,155,100,250,0,22,0,2.7,<null>,<null>,59,1,2008,Bojadgieva2008,Bojadgieva2008,<null>
14133,Bulgaria,<null>,Zidarovo 94,42.3333,27.4167,148,200,600,0,25,0,2.3,<null>,<null>,58,1,2008,Bojadgieva2008,Bojadgieva2008,<null>
14134,Bulgaria,<null>,Stejerovo R-1,43.4667,25.15,170,400,900,0,24,0,2.4,<null>,<null>,58,1,2008,Bojadgieva2008,Bojadgieva2008,<null>
14135,Bulgaria,<null>,Malko Tarnovo 644,41.9833,27.5333,89,200,600,0,21,0,2.8,<null>,<null>,58,1,2008,Bojadgieva2008,Bojadgieva2008,<null>
14136,Bulgaria,<null>,Aheloj B-39,42.65,27.65,66,400,500,0,27,0,2.1,<null>,<null>,57,1,2008,Bojadgieva2008,Bojadgieva2008,<null>
14137,Bulgaria,<null>,Voivodino C-8/C-31,42.2,24.8,195,100,500,0,31,0,1.8,<null>,<null>,56,2,2008,Bojadgieva2008,Bojadgieva2008,<null>
14138,Bulgaria,<null>,Koprinka 113/123/129/152,42.6333,25.35,611,300,500,0,39,0,1.4,<null>,<null>,55,4,2008,Bojadgieva2008,Bojadgieva2008,<null>
14139,Bulgaria,<null>,Bobov dol C-100/C-404,42.7333,26.0833,611,100,500,0,39,0,1.4,<null>,<null>,55,2,2008,Bojadgieva2008,Bojadgieva2008,<null>
14140,Bulgaria,<null>,Maglij C-6,42.6167,25.55,561,300,1000,0,23,0,2.4,<null>,<null>,55,1,2008,Bojadgieva2008,Bojadgieva2008,<null>
14141,Bulgaria,<null>,31,42.2833,26.9,41,300,600,0,30,0,1.8,<null>,<null>,54,1,1983,Velinov&Boyadgieva1983,Velinov&Boyadgieva1983,borehole
14142,Bulgaria,<null>,Balgarevo R-114 (Kaliakra),43.3667,28.4667,53,200,700,0,30,0,1.8,<null>,<null>,54,1,2008,Bojadgieva2008,Bojadgieva2008,<null>
14144,Bulgaria,<null>,Tserovo HG-1,42.3667,24.0667,348,200,600,0,20,0,2.7,<null>,<null>,54,1,2008,Bojadgieva2008,Bojadgieva2008,<null>
14145,Bulgaria,<null>,Elshitsa C-134,42.3833,24.2333,568,200,1000,0,20,0,2.7,<null>,<null>,54,1,2008,Bojadgieva2008,Bojadgieva2008,<null>
14146,Bulgaria,<null>,Bakadjik 278,42.3667,26.7167,0,200,500,0,23,0,2.3,<null>,<null>,53,1,2008,Bojadgieva2008,Bojadgieva2008,<null>
14147,Bulgaria,<null>,Radka 4 (ore field Elshitsa),42.3833,24.3333,400,200,1000,0,23,0,2.3,<null>,<null>,53,1,2008,Bojadgieva2008,Bojadgieva2008,<null>
14148,Bulgaria,<null>,Trastenik R-1,43.5333,24.5,112,400,1300,0,22,1,2.4,<null>,<null>,53,1,2008,Bojadgieva2008,Bojadgieva2008,<null>
14149,Bulgaria,<null>,Gramatikovo C-1500/C-1650,42.0667,27.6667,250,200,1000,0,21,0,2.5,<null>,<null>,53,2,2008,Bojadgieva2008,Bojadgieva2008,<null>
14150,Bulgaria,<null>,Skobelevo 1,43.1667,24.6667,306,200,400,0,21,0,2.5,<null>,<null>,53,1,2008,Bojadgieva2008,Bojadgieva2008,<null>
14151,Bulgaria,<null>,Kovatchevo C-26,42.25,26.0833,152,100,400,0,28,0,1.9,<null>,<null>,52,1,2008,Bojadgieva2008,Bojadgieva2008,<null>
14152,Bulgaria,<null>,Bratsigovo HG-3,42.0333,24.3833,518,400,600,0,20,0,2.6,<null>,<null>,52,1,2008,Bojadgieva2008,Bojadgieva2008,<null>
14153,Bulgaria,<null>,62,43.1,27.9167,0,1600,2200,0,16,0,3.26,<null>,<null>,52,1,1983,Velinov&Boyadgieva1983,Velinov&Boyadgieva1983,borehole
14154,Bulgaria,<null>,92,43.6333,28.5,25,900,1900,0,23,0,2,<null>,<null>,51,1,1983,Velinov&Boyadgieva1983,Velinov&Boyadgieva1983,borehole
14155,Bulgaria,<null>,Kosatcha 111,42.5667,22.85,914,200,300,0,25,0,2,<null>,<null>,50,1,2008,Bojadgieva2008,Bojadgieva2008,<null>
14156,Bulgaria,<null>,Gorun R-121,43.4833,28.4833,67,1200,2300,0,25,2,2,<null>,<null>,50,1,2008,Bojadgieva2008,Bojadgieva2008,<null>
14157,Bulgaria,<null>,Drjanovo 126/136,42.9833,25.4833,279,200,450,0,21,0,2.4,<null>,<null>,50,2,2008,Bojadgieva2008,Bojadgieva2008,<null>
14158,Bulgaria,<null>,Mugla C-6,41.6167,24.5,1513,350,500,0,17,0,2.1,<null>,<null>,50,1,2008,Bojadgieva2008,Bojadgieva_etal1991,<null>
14159,Bulgaria,<null>,Kazanlak K-4,42.6167,25.4,613,200,600,0,35,0,1.4,<null>,<null>,49,1,2008,Bojadgieva2008,Bojadgieva2008,<null>
14160,Bulgaria,<null>,Mandritsa C-3,41.4,26.1333,152,100,300,0,18,0,2.7,<null>,<null>,49,1,2008,Bojadgieva2008,Bojadgieva2008,<null>
14161,Bulgaria,<null>,Shabla R-123,43.55,28.5833,28,1300,3200,0,18,3,2.7,<null>,<null>,49,1,2008,Bojadgieva2008,Bojadgieva2008,<null>
14162,Bulgaria,<null>,Solnik R-1,42.9167,27.6167,237,400,1000,0,20,0,2.4,<null>,<null>,48,1,2008,Bojadgieva2008,Bojadgieva2008,<null>
14163,Bulgaria,<null>,Tchereshovo R-1,43.8833,26.3333,45,300,500,0,20,0,2.4,<null>,<null>,48,1,2008,Bojadgieva2008,Bojadgieva2008,<null>
14164,Bulgaria,<null>,Malak Tcherdak HG-4,42.3,24.65,272,200,400,0,26,0,1.8,<null>,<null>,47,1,2008,Bojadgieva2008,Bojadgieva2008,<null>
14165,Bulgaria,<null>,Rajena C-36,42.5333,25.5,609,100,300,0,17,0,2.7,<null>,<null>,47,1,2008,Bojadgieva2008,Bojadgieva2008,<null>
14166,Bulgaria,<null>,Elatsite 121/129 (Panagjurishte ore field),42.7333,24.05,1369,300,600,0,19,4,2.4,<null>,<null>,46,2,2008,Bojadgieva2008,Bojadgieva2008,<null>
14167,Bulgaria,<null>,Toshevtsi R-1 (Makresh),43.8,22.6,287,400,1400,0,19,3,2.4,<null>,<null>,46,1,2008,Bojadgieva2008,Bojadgieva2008,<null>
14168,Bulgaria,<null>,Makresh,43.7667,22.6667,290,400,1400,1,0,3,0,<null>,<null>,46,<null>,1991,Bojadgieva_etal1991,Bojadgieva2008,<null>
14169,Bulgaria,<null>,Nikolaevo 256/280/328,42.6333,25.8,305,200,600,0,25,0,1.8,<null>,<null>,45,3,2008,Bojadgieva2008,Bojadgieva2008,<null>
14171,Bulgaria,<null>,Grancharitsa HG-1,41.9333,23.9333,659,200,500,0,17,0,2.7,<null>,<null>,43,1,2008,Bojadgieva2008,Bojadgieva2008,<null>
14172,Bulgaria,<null>,Vetrino R-3,43.3167,27.5,243,200,800,0,17,0,2.5,<null>,<null>,43,1,2008,Bojadgieva2008,Bojadgieva2008,<null>
14173,Bulgaria,<null>,Nova Zagora C-25,42.5,26.0167,153,100,400,0,22,0,1.9,<null>,<null>,42,1,2008,Bojadgieva2008,Bojadgieva2008,<null>
14174,Bulgaria,<null>,Tchereshnitsa C-25,41.5,23.4667,323,200,500,0,16,0,2.5,<null>,<null>,40,1,2008,Bojadgieva2008,Bojadgieva2008,<null>
14175,Bulgaria,<null>,Otets Kirilovo C-28,42.35,25.0167,253,100,500,0,18,0,2,<null>,<null>,36,1,2008,Bojadgieva2008,Bojadgieva2008,<null>
14176,Bulgaria,<null>,37,42.45,23.6,330,300,500,0,14,0,2.4,<null>,<null>,35,1,1983,Velinov&Boyadgieva1983,Velinov&Boyadgieva1983,borehole
19646,Czechoslovakia,<null>,Teplice TH-6,50.6333,13.8483,193,40,110,0,70,1,2.64,<null>,<null>,185,1,1967,Cermak1967b,Cermak1967b,borehole
19647,Czechoslovakia,<null>,Teplice TH-25,50.6433,13.8217,224,130,140,0,57,1,2.76,<null>,<null>,158,1,1967,Cermak1967b,Cermak1967b,borehole
19648,Czechoslovakia,<null>,ZC-6,50.435,12.8683,887,20,440,43,39,11,3.06,<null>,<null>,121,<null>,0,Cermak&Safanda1982; Cermak_etal1991,Cermak&Safanda1982; Cermak_etal1991,borehole
19649,Czechoslovakia,<null>,Stretava S-7,48.6017,22.0583,104,2200,3150,0,49,9,1.94,<null>,<null>,113,1,0,Cermak1967c; Cermak_etal1991; Cermak1968e,Cermak1967c; Cermak_etal1991; Cermak1968e,borehole
19650,Czechoslovakia,<null>,Stretava S-5,48.6167,22.0467,101,1700,2800,0,46,8,2.34,<null>,<null>,113,1,0,Cermak1967c; Cermak_etal1991; Cermak1968e,Cermak1967c; Cermak_etal1991; Cermak1968e,borehole
19651,Czechoslovakia,<null>,Podhorie,48.4883,18.92,601,400,690,30,41,62,2.64,<null>,<null>,108,1,0,Lizon&Janci1978; Cermak_etal1991,Lizon&Janci1978; Cermak_etal1991,borehole
19652,Czechoslovakia,<null>,Streda nad Bodrogom,48.3833,21.7333,0,0,0,0,0,0,0,<null>,<null>,108,1,1975,Boldizsar1975,Boldizsar1975,<null>
19653,Czechoslovakia,<null>,ZC-2,50.4367,12.87,911,50,560,42,40,7,2.65,<null>,<null>,107,<null>,0,Cermak&Safanda1982; Cermak_etal1991,Cermak&Safanda1982; Cermak_etal1991,borehole
19654,Czechoslovakia,<null>,ZC-16,50.4167,12.9167,990,20,200,19,33,3,3.07,<null>,<null>,106,<null>,0,Cermak&Safanda1982; Cermak_etal1991,Cermak&Safanda1982; Cermak_etal1991,borehole
19655,Czechoslovakia,<null>,Dubi TH-30,50.6917,13.7817,449,40,180,0,41,1,2.59,<null>,<null>,105,1,1967,Cermak1967b,Cermak1967b,borehole
19656,Czechoslovakia,<null>,R-9,48.4233,18.7783,538,60,570,52,34,68,3.05,<null>,1.3,105,<null>,0,Lizon&Janci1978; Cermak_etal1991,Lizon&Janci1978; Cermak_etal1991,borehole
19657,Czechoslovakia,<null>,ZC-1,50.4333,12.845,834,60,250,20,43,5,2.41,<null>,<null>,104,<null>,0,Cermak&Safanda1982; Cermak_etal1991,Cermak&Safanda1982; Cermak_etal1991,borehole
19658,Czechoslovakia,<null>,Ptruksa PT-1,48.4917,22.07,100,1650,2400,0,46,2,2.14,<null>,<null>,103,1,0,Cermak1967c; Cermak_etal1991; Cermak1968e,Cermak1967b,borehole
19659,Czechoslovakia,<null>,R-4,48.4267,18.7817,635,600,890,30,33,49,3.09,<null>,2.01,103,<null>,0,Lizon&Janci1978; Cermak_etal1991,Lizon&Janci1978; Cermak_etal1991,borehole
19660,Czechoslovakia,<null>,R-6,48.4217,18.78,602,460,760,31,34,53,2.94,<null>,<null>,100,<null>,0,Lizon&Janci1978; Cermak_etal1991,Lizon&Janci1978; Cermak_etal1991,borehole
19661,Czechoslovakia,<null>,Brehy-14,48.385,18.69,375,800,1200,40,37,52,2.63,<null>,2.17,98,1,0,Lizon&Janci1978; Cermak_etal1991,Lizon&Janci1978; Cermak_etal1991,borehole
19662,Czechoslovakia,<null>,Skuhrov MB-5A,50.3367,14.58,190,40,102,7,37,0,2.53,<null>,<null>,97,1,1968,Cermak_etal1968,Brunnerova_etal1975,borehole
19663,Czechoslovakia,<null>,Krasno K-25,50.125,12.8017,640,105,220,24,33,4,2.89,53,8.4,96,1,1975,Cermak1975a,Cermak1975a,borehole
19664,Czechoslovakia,<null>,R-11,48.4183,18.7783,547,600,900,31,32,56,2.99,<null>,<null>,96,<null>,0,Lizon&Janci1978; Cermak_etal1991,Lizon&Janci1978; Cermak_etal1991,borehole
19665,Czechoslovakia,<null>,K. Hlavno KH-1,50.2717,14.7117,228,30,140,0,45,2,1.82,<null>,<null>,96,1,1968,Cermak1968c,Cermak1968c,borehole
19666,Czechoslovakia,<null>,Tyniste TO-1,50.1683,16.0933,273,30,590,0,38,2,2.72,<null>,<null>,96,1,1968,Cermak1968c,Cermak1968c,borehole
19667,Czechoslovakia,<null>,Streda,48.3733,21.73,98,300,700,41,40,9,2.37,<null>,<null>,94,1,0,Kral_etal1985; Cermak_etal1991,Kral_etal1985; Cermak_etal1991,borehole
19668,Czechoslovakia,<null>,ZC-11,50.4167,12.9167,1000,30,480,46,37,10,2.41,<null>,<null>,93,<null>,0,Cermak&Safanda1982; Cermak_etal1991,Cermak&Safanda1982; Cermak_etal1991,borehole
19669,Czechoslovakia,<null>,Kuncice NP-547,49.54,18.2533,455,1100,1200,0,34,5,2.98,<null>,<null>,92,1,0,Kubik&Cermak1986; Cermak1976b; Cermak1975b,Kubik&Cermak1986; Cermak1976b; Cermak1975b,borehole
19670,Czechoslovakia,<null>,Skuhrov MB-5A,50.3367,14.58,190,132,280,15,40,0,2.26,<null>,<null>,90,1,1968,Cermak_etal1968,Cermak_etal1968,borehole
19671,Czechoslovakia,<null>,Cista CT-42,50.0983,12.7133,726,60,140,9,31,8,2.83,<null>,<null>,89,1,1975,Cermak1975a,Cermak1975a,borehole
19672,Czechoslovakia,<null>,Ostravice NP-824,49.5583,18.3817,395,1030,1790,0,36,85,2.76,<null>,<null>,88,1,1986,Kubik&Cermak1986,Kubik&Cermak1986,borehole
19673,Czechoslovakia,<null>,Kolarovo KL-2,47.9283,18.04,111,0,3050,32,41,0,2.11,<null>,<null>,87,1,0,Kral_etal1985; Cermak_etal1991,Kral_etal1985; Cermak_etal1991,borehole
19674,Czechoslovakia,<null>,Teplice TP-28,50.64,13.8283,215,390,860,48,35,19,2.46,<null>,<null>,87,1,1975,Cermak1975a,Cermak1975a,borehole
19675,Czechoslovakia,<null>,ZC-15,50.4167,12.9167,980,20,310,30,36,6,2.31,<null>,<null>,86,<null>,0,Cermak&Safanda1982; Cermak_etal1991,Cermak&Safanda1982; Cermak_etal1991,borehole
19676,Czechoslovakia,<null>,Rudno-9,48.4333,18.6833,239,750,960,21,35,39,2.4,<null>,1.46,85,1,0,Lizon&Janci1978; Cermak_etal1991,Lizon&Janci1978; Cermak_etal1991,borehole
19677,Czechoslovakia,<null>,Celadna NP-522,49.5083,18.34,526,1300,2200,0,37,0,2.25,<null>,<null>,84,1,1986,Kubik&Cermak1986,Kubik&Cermak1986,borehole
19678,Czechoslovakia,<null>,Cinovec CS-1,50.7333,13.7667,842,240,770,0,36,6,2.34,458,7.3,84,1,1967,Cermak1967b,Cermak1967b,borehole
19679,Czechoslovakia,<null>,ZC-3,50.4183,12.9,993,20,430,42,37,9,2.28,<null>,<null>,83,<null>,0,Cermak&Safanda1982; Cermak_etal1991,Cermak&Safanda1982; Cermak_etal1991,borehole
19680,Czechoslovakia,<null>,Kr. Bane,48.73,18.92,777,660,1160,50,27,26,3.09,<null>,1.18,83,1,0,Lizon&Janci1978; Cermak_etal1991,Lizon&Janci1978; Cermak_etal1991,borehole
19681,Czechoslovakia,<null>,Kralova pri Senci,48.1833,17.3833,0,0,0,0,0,0,0,<null>,<null>,83,1,1975,Boldizsar1975,Ostrihansky1980,borehole
19682,Czechoslovakia,<null>,Sobrance,48.765,22.1983,145,0,823,10,38,12,2.19,<null>,<null>,82,1,0,Kral_etal1985; Cermak_etal1991,Kral_etal1985; Cermak_etal1991,borehole
19683,Czechoslovakia,<null>,Jenichov MJ-8,50.36,14.5783,212,100,620,0,35,5,2.31,<null>,<null>,81,1,1968,Cermak1968c,Cermak1968c,borehole
19684,Czechoslovakia,<null>,Topolnik,47.9767,17.79,112,0,2503,26,40,23,2.02,<null>,<null>,81,1,0,Kral_etal1985; Cermak_etal1991,Kral_etal1985; Cermak_etal1991,borehole
19685,Czechoslovakia,<null>,Libstat,50.5583,15.4217,368,10,1040,0,36,27,2.41,<null>,<null>,81,1,0,Cermak&Safanda1982; Cermak_etal1991,Cermak&Safanda1982; Cermak_etal1991,borehole
19686,Czechoslovakia,<null>,Slany,50.25,14.1,285,600,1030,44,35,11,2.33,<null>,<null>,81,1,1976,Cermak1976a,Cermak1976a,borehole
19687,Czechoslovakia,<null>,Vlcany,48.0333,17.95,110,0,2500,26,41,25,1.97,<null>,<null>,80,1,0,Kral_etal1985; Cermak_etal1991,Kral_etal1985; Cermak_etal1991,borehole
19688,Czechoslovakia,<null>,Badin,48.7,19.0333,945,380,760,39,27,27,2.94,<null>,<null>,80,1,0,Lizon&Janci1978; Cermak_etal1991,Lizon&Janci1978; Cermak_etal1991,borehole
19689,Czechoslovakia,<null>,Soblahov,48.855,18.0917,432,110,1000,90,26,22,3.08,<null>,1.07,80,1,0,Lizon&Janci1978; Cermak_etal1991,Lizon&Janci1978; Cermak_etal1991,borehole
19690,Czechoslovakia,<null>,Brnany BR-1,50.4867,14.15,150,120,1250,0,32,16,2.51,<null>,<null>,80,1,1977,Cermak1977,Cermak1977,borehole
19691,Czechoslovakia,<null>,Benatky MB-21,50.2933,14.8067,243,100,500,0,31,3,3.54,<null>,<null>,79,1,1968,Cermak1968c,Cermak1968c,borehole
19692,Czechoslovakia,<null>,FGG-2,48.1833,17.7833,117,0,2101,22,41,8,1.94,<null>,<null>,79,<null>,0,Kral_etal1985; Cermak_etal1991,Kral_etal1985; Cermak_etal1991,borehole
19693,Czechoslovakia,<null>,Bohelov,47.9167,17.6833,110,0,2800,57,39,44,2.01,<null>,<null>,79,1,0,Kral_etal1985; Cermak_etal1991,Kral_etal1985; Cermak_etal1991,borehole
19694,Czechoslovakia,<null>,Kuncice NP-533,49.5267,18.31,531,1300,1500,0,39,5,3.16,<null>,<null>,79,1,1986,Kubik&Cermak1986,Kubik&Cermak1986,borehole
19695,Czechoslovakia,<null>,Kozlovice SV-1,49.595,18.2817,412,1000,1900,0,31,9,2.54,<null>,<null>,79,1,0,Kubik&Cermak1986; Cermak1976c; Cermak1975b,Kubik&Cermak1986; Cermak1976b; Cermak1975b,borehole
19696,Czechoslovakia,<null>,Stonava SV-2,49.8067,18.5283,249,700,2600,0,30,41,2.99,<null>,<null>,79,1,0,Kubik&Cermak1986; Cermak1976c; Cermak1975b,Kubik&Cermak1986; Cermak1976c; Cermak1975b,borehole
19697,Czechoslovakia,<null>,Malenovice NP-822,49.5833,18.41,516,1100,1600,0,29,14,2.94,<null>,<null>,79,1,1986,Kubik&Cermak1986,Kubik&Cermak1986,borehole
19698,Czechoslovakia,<null>,Kostalov,50.5667,15.4,355,360,880,53,29,17,2.76,<null>,<null>,79,1,1976,Cermak1976a,Cermak1976a,borehole
19699,Czechoslovakia,<null>,Stremy MB-7,50.385,14.5483,234,100,1080,0,32,10,2.47,<null>,<null>,79,1,1977,Cermak1977,Cermak1977,borehole
19700,Czechoslovakia,<null>,Calovo,47.85,17.7667,110,0,2500,26,38,0,2.06,<null>,<null>,78,1,0,Kral_etal1985; Cermak_etal1991,Kral_etal1985; Cermak_etal1991,borehole
19701,Czechoslovakia,<null>,N. Zamky,47.9833,18.1667,115,0,1506,16,42,7,1.81,<null>,<null>,77,1,0,Kral_etal1985; Cermak_etal1991,Kral_etal1985; Cermak_etal1991,borehole
19702,Czechoslovakia,<null>,Tvrdosov,48.1,18.0667,115,0,2406,25,41,34,1.87,<null>,<null>,77,1,0,Kral_etal1985; Cermak_etal1991,Kral_etal1985; Cermak_etal1991,borehole
19703,Czechoslovakia,<null>,Kozlovice NP-541,49.565,18.2867,535,1000,1200,0,37,10,3.25,<null>,<null>,77,1,0,Kubik&Cermak1986; Cermak1976b; Cermak1975b,Kubik&Cermak1986; Cermak1976b; Cermak1975b,borehole
19704,Czechoslovakia,<null>,Lubna Lu-8,49.18,17.3717,429,500,1200,93,35,6,1.67,<null>,<null>,76,1,1975,Cermak1975b,Cermak1975b,borehole
19705,Czechoslovakia,<null>,Gondovo,48.29,18.6783,203,500,700,21,45,39,1.68,<null>,1.18,76,1,0,Lizon&Janci1978; Cermak_etal1991,Kubik&Cermak1986; Cermak1976c; Cermak1975b,borehole
19706,Czechoslovakia,<null>,Gabcik,47.9,17.5833,115,0,2582,27,39,21,1.92,<null>,<null>,76,1,0,Kral_etal1985; Cermak_etal1991,Kral_etal1985; Cermak_etal1991,borehole
19707,Czechoslovakia,<null>,Diakovce,48.135,17.785,115,0,2000,21,38,0,1.99,<null>,<null>,76,1,0,Kral_etal1985; Cermak_etal1991,Kral_etal1985; Cermak_etal1991,borehole
19708,Czechoslovakia,<null>,FGG-1,48.205,17.6767,121,0,1990,21,38,20,1.98,<null>,<null>,76,<null>,0,Kral_etal1985; Cermak_etal1991,Kral_etal1985; Cermak_etal1991,borehole
19709,Czechoslovakia,<null>,Dvory n. Zitavou,47.9833,18.2667,125,0,2500,26,40,27,1.88,<null>,<null>,75,1,0,Kral_etal1985; Cermak_etal1991,Kral_etal1985; Cermak_etal1991,borehole
19710,Czechoslovakia,<null>,D. Streda,47.985,17.6183,115,0,2500,26,39,0,1.93,<null>,<null>,75,1,0,Kral_etal1985; Cermak_etal1991,Kral_etal1985; Cermak_etal1991,borehole
19711,Czechoslovakia,<null>,Lidecko Li-1,49.2183,18.0517,434,300,2420,0,21,30,3.53,<null>,<null>,75,1,0,Cermak1976a; Cermak1975b; Kubik&Cermak1986,Cermak1976a,borehole
19712,Czechoslovakia,<null>,Skuhrov MB-5A,50.3367,14.58,190,102,132,3,22,0,3.33,<null>,<null>,74,1,1968,Cermak_etal1968,Cermak_etal1968,borehole
19713,Czechoslovakia,<null>,FGG-3,48.1833,17.7667,117,0,2102,22,41,0,1.81,<null>,<null>,74,<null>,0,Kral_etal1985; Cermak_etal1991,Kral_etal1985; Cermak_etal1991,borehole
19714,Czechoslovakia,<null>,Trojanovice NP-545,49.5133,18.255,602,1200,1400,0,41,11,8.86,<null>,<null>,74,1,1986,Kubik&Cermak1986,Kubik&Cermak1986,borehole
19715,Czechoslovakia,<null>,H. Poton,48.0333,17.5,120,0,2500,26,40,35,1.85,<null>,<null>,74,1,0,Kral_etal1985; Cermak_etal1991,Kral_etal1985; Cermak_etal1991,borehole
19716,Czechoslovakia,<null>,Trojanovice NP-803,49.5233,18.2233,473,1100,1400,0,39,7,3.24,<null>,<null>,74,1,1986,Kubik&Cermak1986,Kubik&Cermak1986,borehole
19717,Czechoslovakia,<null>,Perue,50.3283,13.9817,334,120,1250,0,33,18,2.26,<null>,<null>,74,1,0,Cermak&Safanda1982; Cermak_etal1991,Cermak&Safanda1982; Cermak_etal1991,borehole
19718,Czechoslovakia,<null>,Pstruzi NP-554,49.5733,18.33,468,900,1500,0,33,11,2.64,<null>,<null>,73,1,1986,Kubik&Cermak1986,Kubik&Cermak1986,<null>
19719,Czechoslovakia,<null>,Verovice NP-548,49.525,18.14,508,1000,1400,0,32,14,2.6,<null>,<null>,73,1,1986,Kubik&Cermak1986,Kubik&Cermak1986,borehole
19720,Czechoslovakia,<null>,Cinovec CN-201,50.7267,13.765,859,20,420,43,26,14,2.82,<null>,<null>,73,1,1975,Cermak1975a,Cermak1975a,borehole
19721,Czechoslovakia,<null>,Rydec UB-7,50.615,14.1717,448,280,430,0,36,2,1.95,<null>,<null>,72,1,1968,Cermak1968c,Cermak1968c,borehole
19722,Czechoslovakia,<null>,Kralova,48.2,17.435,124,0,1499,16,39,7,1.86,<null>,<null>,72,1,0,Kral_etal1985; Cermak_etal1991,Kral_etal1985; Cermak_etal1991,borehole
19723,Czechoslovakia,<null>,Trojanovice NP-550,49.5067,18.235,578,1200,1500,0,37,8,2.94,<null>,<null>,72,1,0,Kubik&Cermak1986; Cermak1976b; Cermak1975b,Kubik&Cermak1986; Cermak1975b,borehole
19724,Czechoslovakia,<null>,Ticha NP-531,49.5683,18.2483,370,1000,1600,0,35,12,2.16,<null>,<null>,72,1,0,Kubik&Cermak1986; Cermak1968d; Cermak1975b,Kubik&Cermak1986; Cermak1968d; Cermak1975b,borehole
19725,Czechoslovakia,<null>,ZC-10,50.4167,12.9167,975,10,80,8,35,2,2.11,<null>,<null>,72,<null>,0,Cermak&Safanda1982; Cermak_etal1991,Cermak&Safanda1982; Cermak_etal1991,borehole
19726,Czechoslovakia,<null>,Celadna NP-552,49.5433,18.305,557,1100,1600,0,35,9,2.32,<null>,<null>,72,1,1986,Kubik&Cermak1986,Kubik&Cermak1986,borehole
19727,Czechoslovakia,<null>,Trojanovice NP-546,49.5167,18.2083,460,900,1400,0,34,10,2.32,<null>,<null>,72,1,1986,Kubik&Cermak1986,Kubik&Cermak1986,borehole
19728,Czechoslovakia,<null>,Dunaj 13,48.8333,16.5667,200,90,1140,0,27,1,2.61,<null>,<null>,72,1,0,Cermak&Safanda1982; Cermak_etal1991,Cermak&Safanda1982,borehole
19729,Czechoslovakia,<null>,Choryne CHO-9,49.5667,17.8833,334,400,1300,0,25,13,3.41,<null>,<null>,72,1,1986,Kubik&Cermak1986,Kubik&Cermak1986,borehole
19730,Czechoslovakia,<null>,Choryne Cho-9,49.5667,17.8833,334,440,1220,0,25,13,3.24,<null>,<null>,72,1,1975,Cermak1975b,Cermak1975b,borehole
19731,Czechoslovakia,<null>,Novotnik,49.4983,13.5333,470,10,1150,0,23,31,3.17,<null>,<null>,72,1,0,Cermak&Safanda1982; Cermak_etal1991,Cermak&Safanda1982; Cermak_etal1991,borehole
19732,Czechoslovakia,<null>,Topolniky,47.9667,17.8,0,0,0,0,0,0,0,<null>,<null>,72,1,1975,Boldizsar1975,Boldizsar1975,<null>
19733,Czechoslovakia,<null>,Stranka MJ-2,50.425,14.6533,347,240,880,0,31,4,2.37,<null>,<null>,72,1,1968,Cermak1968c,Cermak1968c,borehole
19734,Czechoslovakia,<null>,Remetske Hamre RH-1,48.8867,22.1783,683,100,978,0,34,25,2.12,<null>,<null>,71,1,1977,Cermak1977a,Cermak1977a,borehole
19735,Czechoslovakia,<null>,St. Ransko SRS-4,49.7167,15.85,600,100,870,0,22,5,3.27,<null>,<null>,71,1,1968,Cermak1968c,Cermak1968b,borehole
19736,Czechoslovakia,<null>,Trojanovice NP-542,49.5283,18.2567,489,1100,1300,0,37,5,2.19,<null>,<null>,71,1,0,Kubik&Cermak1986; Cermak1976b; Cermak1975b,Kubik&Cermak1986; Cermak1976b; Cermak1975b,borehole
19737,Czechoslovakia,<null>,Kozlovice SV-4,49.6017,18.2533,383,800,1800,0,29,18,3.12,<null>,<null>,71,1,0,Kubik&Cermak1986; Cermak1976b; Cermak1975b,Kubik&Cermak1986; Cermak1976b; Cermak1975b,borehole
19738,Czechoslovakia,<null>,Hrachovec NP-518,49.47,18,307,200,2800,0,27,24,2.68,<null>,<null>,71,1,1986,Kubik&Cermak1986,Kubik&Cermak1986,borehole
19739,Czechoslovakia,<null>,Vizovice Vi-1,49.2033,17.86,394,100,4000,0,26,46,3.01,<null>,<null>,71,1,0,Cermak1979; Cermak1975b; Kubik&Cermak1986,Cermak1977a,borehole
19740,Czechoslovakia,<null>,Odrava,50.1067,12.4133,437,20,860,67,25,14,2.94,<null>,<null>,71,1,0,Cermak&Safanda1982; Cermak_etal1991,Cermak&Safanda1982; Cermak_etal1991,borehole
19741,Czechoslovakia,<null>,Ostravice NP-824,49.5583,18.3817,395,1800,1970,0,22,0,3.19,<null>,<null>,71,1,1986,Kubik&Cermak1986,Kubik&Cermak1986,borehole
19742,Czechoslovakia,<null>,Bechlin BE-1,50.415,14.365,208,100,1280,0,28,16,2.53,<null>,<null>,70,1,1977,Cermak1977,Cermak1977,borehole
19743,Czechoslovakia,<null>,SE-1,48.2167,17.4,125,0,2540,26,36,0,1.94,<null>,<null>,70,<null>,0,Kral_etal1985; Cermak_etal1991,Kral_etal1985; Cermak_etal1991,borehole
19744,Czechoslovakia,<null>,Trojanovice NP-556,49.5033,18.19,550,1200,1600,0,33,9,2.72,<null>,<null>,70,1,1986,Kubik&Cermak1986,Kubik&Cermak1986,<null>
19745,Czechoslovakia,<null>,Rusava RU-1,49.34,17.6883,381,1600,1900,0,31,11,2.18,<null>,<null>,70,1,1986,Kubik&Cermak1986,Kral&Janci1978; Cermak_etal1991,borehole
19746,Czechoslovakia,<null>,Bystrice B-1,49.6333,18.7333,0,600,1300,0,29,9,2.19,<null>,<null>,70,1,1986,Kubik&Cermak1986,Kubik&Cermak1986,borehole
19747,Czechoslovakia,<null>,Z. Zdirni,50.5167,15.6667,365,60,710,54,28,22,2.49,<null>,<null>,70,1,0,Cermak&Safanda1982; Cermak_etal1991,Cermak&Safanda1982; Cermak_etal1991,borehole
19748,Czechoslovakia,<null>,Mine Plana,49.8833,12.7,500,80,180,13,24,6,2.92,<null>,<null>,69,1,1968,Cermak&Krcmar1968; Cermak1968c,Cermak&Krcmar1967; Cermak1968c,borehole
19749,Czechoslovakia,<null>,Dlouhopolsko KN-2,50.1617,15.3233,238,90,480,0,24,8,3.02,<null>,<null>,69,1,1968,Cermak1968c,Cermak1968c,borehole
19750,Czechoslovakia,<null>,RGL-1,48.55,17.2167,230,0,1243,13,43,3,1.62,<null>,<null>,69,<null>,0,Kral_etal1985; Cermak_etal1991,Kral_etal1985; Cermak_etal1991,borehole
19751,Czechoslovakia,<null>,BS-1,48.2167,17.3833,130,0,1350,15,39,7,1.79,<null>,<null>,69,<null>,0,Kral_etal1985; Cermak_etal1991,Kral_etal1985; Cermak_etal1991,borehole
19752,Czechoslovakia,<null>,Cilistov,48.0167,17.3167,125,0,2500,26,36,27,1.98,<null>,<null>,69,1,0,Kral_etal1985; Cermak_etal1991,Kral_etal1985; Cermak_etal1991,borehole
19753,Czechoslovakia,<null>,Kuncice NP-544,49.535,18.285,454,1000,1400,0,33,20,2.73,<null>,<null>,69,1,1986,Kubik&Cermak1986,Kubik&Cermak1986,borehole
19754,Czechoslovakia,<null>,Ticha NP-522,49.55,18.24,443,1000,2200,0,32,20,2.42,<null>,<null>,69,1,0,Kubik&Cermak1986; Cermak1968d; Cermak1975b,Kubik&Cermak1986; Cermak1968d; Cermak1975b,borehole
19755,Czechoslovakia,<null>,Bystre,50.5083,16.13,532,10,1080,0,26,15,3.09,<null>,<null>,69,<null>,0,Cermak&Safanda1982; Cermak_etal1991,Cermak&Safanda1982; Cermak_etal1991,<null>
19756,Czechoslovakia,<null>,Trakov,48.4283,17.71,150,0,1000,11,45,0,1.51,<null>,<null>,68,1,0,Kral_etal1985; Cermak_etal1991,Kral_etal1985; Cermak_etal1991,borehole
19757,Czechoslovakia,<null>,Trojanovice NP-544,49.5233,18.175,570,1000,1300,0,33,10,2.58,<null>,<null>,68,1,1986,Kubik&Cermak1986,Kubik&Cermak1986,borehole
19758,Czechoslovakia,<null>,Skrecon NP-725,49.91,18.375,199,900,1700,0,33,8,2.46,<null>,<null>,68,1,0,Kubik&Cermak1986; Cermak1968d; Cermak1975b,Kubik&Cermak1986; Cermak1968d; Cermak1975b,borehole
19759,Czechoslovakia,<null>,Trojanovice NP-804,49.5283,18.1883,489,600,900,0,31,5,2.39,<null>,<null>,68,1,1986,Kubik&Cermak1986,Kubik&Cermak1986,borehole
19760,Czechoslovakia,<null>,Jablunka JAB-1,49.3833,17.95,0,2900,5300,0,29,25,3.21,<null>,<null>,68,1,1986,Kubik&Cermak1986,Kubik&Cermak1986,<null>
19761,Czechoslovakia,<null>,Krizany,50.9167,14.8667,393,120,590,48,21,7,3.04,<null>,<null>,68,1,1985,Cermak&Jetel1985,Cermak&Jetel1985,borehole
19762,Czechoslovakia,<null>,Libkovic,50.5833,13.6833,245,120,510,8,0,4,2.85,<null>,<null>,68,1,0,Cermak&Safanda1982; Cermak_etal1991,Cermak&Safanda1982; Cermak_etal1991,borehole
19763,Czechoslovakia,<null>,Cinovec CN-202,50.7167,13.765,0,169,730,57,25,18,2.75,24,8.67,68,1,1980,Ostrihansky1980,Ostrihansky1980,borehole
19764,Czechoslovakia,<null>,Lochocice GU-24,50.6283,13.95,269,500,550,0,18,2,3.81,<null>,<null>,68,1,1967,Cermak1967b,Cermak1967a,borehole
19765,Czechoslovakia,<null>,Usti GU-24 (Lochocic),50.6283,13.95,269,500,550,0,0,2,0,<null>,<null>,68,1,0,Cermak1968c; Cermak_etal1991,Cermak1968c,borehole
19766,Czechoslovakia,<null>,FGK-1,47.7667,18.1,110,0,1700,18,38,15,1.76,<null>,<null>,67,1,0,Kral_etal1985; Cermak_etal1991,Kral_etal1985; Cermak_etal1991,borehole
19767,Czechoslovakia,<null>,Podhora PO-86,48.665,18.685,824,70,1120,62,35,7,2.04,<null>,<null>,67,1,1977,Cermak1977a,Cermak1977a,borehole
19768,Czechoslovakia,<null>,Spacince,48.4383,17.6267,161,0,3000,31,33,0,2.01,<null>,<null>,67,1,0,Kral_etal1985; Cermak_etal1991,Kral_etal1985; Cermak_etal1991,borehole
19769,Czechoslovakia,<null>,Lustenice LE-1,50.3167,14.9117,221,50,270,0,32,3,2.09,<null>,<null>,67,1,1968,Cermak1968c,Cermak1968c,borehole
19770,Czechoslovakia,<null>,Svatonovice ST-8,50.5417,16.055,569,400,1200,0,24,7,2.77,<null>,<null>,67,1,1968,Cermak1968b,Cermak1968b,borehole
19771,Czechoslovakia,<null>,BPK-2,48.1667,18.0667,130,0,1100,12,39,0,1.69,<null>,<null>,66,<null>,0,Kral_etal1985; Cermak_etal1991,Kral_etal1985; Cermak_etal1991,borehole
19772,Czechoslovakia,<null>,Frenstat NP-533,49.5317,18.235,459,1000,1600,0,36,12,2.28,<null>,<null>,66,1,0,Kubik&Cermak1986; Cermak1968d; Cermak1975b,Kubik&Cermak1986,borehole
19773,Czechoslovakia,<null>,Kozlovice SV-4,49.6017,18.2533,383,1900,2200,0,23,0,2.89,<null>,<null>,66,1,0,Kubik&Cermak1986; Cermak1976b; Cermak1975b,Kubik&Cermak1986; Cermak1976b; Cermak1975b,borehole
19774,Czechoslovakia,<null>,L.N. Ves,48.5583,17.185,0,0,0,0,0,0,0,<null>,<null>,66,<null>,0,Kral_etal1985; Cermak_etal1991,Kral_etal1985; Cermak_etal1991,borehole
19775,Czechoslovakia,<null>,Bystre,50.5033,16.13,0,0,0,0,0,0,0,<null>,<null>,66,<null>,0,Cermak&Safanda1982; Cermak_etal1991,Cermak&Safanda1982; Cermak_etal1991,borehole
19776,Czechoslovakia,<null>,Gretl Teplicka GR-2,48.8917,20.57,688,120,1040,0,20,9,3.32,<null>,<null>,65,1,1977,Cermak1977a,Cermak1977a,borehole
19777,Czechoslovakia,<null>,M-3,47.75,18.1333,110,0,1000,11,44,0,1.48,<null>,<null>,65,1,0,Kral_etal1985; Cermak_etal1991,Cermak1979; Cermak1975b; Kubik&Cermak1986,borehole
19778,Czechoslovakia,<null>,BPK-1,48.1667,18.0667,130,0,647,8,39,0,1.68,<null>,<null>,65,<null>,0,Kral_etal1985; Cermak_etal1991,Kral_etal1985; Cermak_etal1991,borehole
19779,Czechoslovakia,<null>,Sastin,48.6333,17.15,210,0,2571,26,37,11,1.77,<null>,<null>,65,1,0,Kral_etal1985; Cermak_etal1991,Kral_etal1985; Cermak_etal1991,<null>
19780,Czechoslovakia,<null>,Trojanovice NP-551,49.51,18.2,478,1000,1400,0,30,10,2.7,<null>,<null>,65,1,1986,Kubik&Cermak1986,Kubik&Cermak1986,borehole
19781,Czechoslovakia,<null>,Celadna NP-522,49.5083,18.34,526,100,1300,0,23,19,2.93,<null>,<null>,65,1,1986,Kubik&Cermak1986,Kubik&Cermak1986,borehole
19782,Czechoslovakia,<null>,Mikova D-14,48.6483,20.25,322,70,1360,0,16,17,3.86,<null>,<null>,65,1,1977,Cermak1977a,Cermak1977,borehole
19783,Czechoslovakia,<null>,Nikoloice NI-1,48.9867,16.7683,331,620,2040,0,27,9,2.32,<null>,<null>,64,1,0,Cermak1968a; Cermak1975b,Cermak1968a; Cermak1975b,borehole
19784,Czechoslovakia,<null>,Modrany,47.8467,18.365,253,0,1670,18,32,0,1.99,<null>,<null>,64,1,0,Kral_etal1985; Cermak_etal1991,Kral_etal1985; Cermak_etal1991,borehole
19785,Czechoslovakia,<null>,Bohdasin,50.5,16.13,555,90,1050,0,25,11,3.5,<null>,<null>,64,<null>,0,Cermak&Safanda1982; Cermak_etal1991,Cermak&Safanda1982; Cermak_etal1991,borehole
19786,Czechoslovakia,<null>,St. Hamry SH-1a,49.46,18.425,548,800,2500,0,25,4,2.97,<null>,<null>,64,1,0,Kubik&Cermak1986; Cermak1975b,Kubik&Cermak1986; Cermak1968d; Cermak1975b,borehole
19787,Czechoslovakia,<null>,LNV-7,48.5667,17.2,230,4400,6000,32,20,9,3.15,<null>,1.68,64,<null>,0,Kral&Janci1978; Cermak_etal1991,Kral_etal1985; Cermak_etal1991,borehole
19788,Czechoslovakia,<null>,Strazkovice ST-5,50.5267,16.0883,547,400,930,0,25,10,2.55,<null>,<null>,64,1,1968,Cermak1968b,Cermak1968b,borehole
19789,Czechoslovakia,<null>,Chotelice KN-3,50.3183,15.47,248,70,860,0,29,1,2.55,<null>,<null>,63,1,1968,Cermak1968c,Cermak1968c,borehole
19790,Czechoslovakia,<null>,Ch. Grob,48.2317,17.2733,133,0,1197,13,40,8,1.59,<null>,<null>,63,1,0,Kral_etal1985; Cermak_etal1991,Kral_etal1985; Cermak_etal1991,borehole
19791,Czechoslovakia,<null>,Hledsebe,50.36,14.5483,234,120,240,0,29,6,2.18,<null>,<null>,63,1,1977,Cermak1977,Cermak1977,borehole
19792,Czechoslovakia,<null>,Slany SA-12,50.2233,14.085,287,100,788,0,30,10,2.08,<null>,<null>,63,1,1967,Cermak1967a,Cermak&Safanda1982; Cermak_etal1991,borehole
19793,Czechoslovakia,<null>,H. Rokyta MJ-5,50.5717,14.8567,335,300,700,0,28,3,2.26,<null>,<null>,63,1,1968,Cermak1968c,Cermak1968c,borehole
19794,Czechoslovakia,<null>,Lab LA-90,48.3817,16.9867,150,748,2163,0,41,4,2.19,<null>,<null>,62,1,0,Marusiak&Lizon1975; Cermak&Krcmar1968b; Cermak_etal1991,Lizon&Janci1978; Cermak_etal1991,borehole
19795,Czechoslovakia,<null>,Husice KN-4,50.2667,15.4117,241,50,650,0,36,5,2.56,<null>,<null>,62,1,1968,Cermak1968c,Cermak1968c,borehole
19796,Czechoslovakia,<null>,Kuncice NP-532,49.5467,18.275,43,1000,1900,0,32,12,2.4,<null>,<null>,62,1,0,Kubik&Cermak1986; Cermak1968d; Cermak1975b,Kubik&Cermak1986; Cermak1968d; Cermak1975b,borehole
19797,Czechoslovakia,<null>,Louky NP-687,49.7933,18.5833,281,1000,1400,0,29,8,2.55,<null>,<null>,62,1,0,Kubik&Cermak1986; Cermak1968d; Cermak1975b,Kubik&Cermak1986; Cermak1968d; Cermak1975b,borehole
19798,Czechoslovakia,<null>,Krasna K-1,49.5317,18.5183,670,100,1900,0,22,16,2.33,<null>,<null>,62,1,1986,Kubik&Cermak1986,Kubik&Cermak1986,borehole
19799,Czechoslovakia,<null>,Lesetice,49.65,14.0167,574,1270,1530,27,22,8,2.79,<null>,<null>,62,1,1976,Cermak1976a,Cermak1976a,borehole
19800,Czechoslovakia,<null>,Roblin Ro-1,49.9567,14.26,406,130,248,0,21,0,0,<null>,<null>,62,1,1975,Brunnerova_etal1975,Velinov&Boyadgieva1983,borehole
19801,Czechoslovakia,<null>,Sokolec OP-3,50.0883,15.1133,193,30,100,0,29,1,2.13,<null>,<null>,62,1,1968,Cermak1968c,Cermak1968c,borehole
19802,Czechoslovakia,<null>,Otruby OB-1,50.255,14.09,244,100,960,0,29,0,0,<null>,<null>,62,1,1967,Cermak1967a,Cermak1967a,borehole
19803,Czechoslovakia,<null>,Drinov DN-1,50.2767,14.095,255,100,1150,0,29,0,0,<null>,<null>,62,1,1967,Cermak1967a,Cermak1967a,borehole
19804,Czechoslovakia,<null>,Berovice BR-2,50.275,14.13,234,100,1170,0,29,7,2.16,<null>,<null>,62,1,1967,Cermak1967a,Cermak1967a,borehole
19805,Czechoslovakia,<null>,Lunikov LV-1,50.2567,14.1483,252,100,925,0,28,19,2.17,<null>,<null>,62,1,1967,Cermak1967a,Cermak1967a,borehole
19806,Czechoslovakia,<null>,Rokytnik RO-1,50.51,16.1483,566,200,945,0,24,12,2.5,<null>,<null>,61,1,1968,Cermak1968b,Cermak1968a; Cermak1975b,borehole
19807,Czechoslovakia,<null>,Rusovce,48.0567,17.1583,132,406,1493,109,42,10,1.45,<null>,<null>,61,1,0,Kral_etal1985; Cermak_etal1991,Kral_etal1985; Cermak_etal1991,borehole
19808,Czechoslovakia,<null>,Dubove,48.49,17.5967,197,0,2780,29,29,0,2.08,<null>,<null>,61,1,0,Kral_etal1985; Cermak_etal1991,Kral_etal1985; Cermak_etal1991,borehole
19809,Czechoslovakia,<null>,Roztoky,50.6833,14.2,130,30,330,31,27,12,2.14,<null>,<null>,61,1,0,Cermak&Safanda1982; Cermak_etal1991,Cermak&Safanda1982; Cermak_etal1991,borehole
19810,Czechoslovakia,<null>,Lom Str,49.7333,12.8833,480,80,470,40,15,12,4.13,<null>,<null>,61,1,1976,Cermak1976a,Cermak1976a,borehole
19811,Czechoslovakia,<null>,Tucapy T-4,49.3117,14.9817,0,70,220,16,24,10,2.53,13,3.3,61,1,1980,Ostrihansky1980,Novak1971; Cermak1975b,borehole
19812,Czechoslovakia,<null>,Vitkov II Z-08,49.8067,12.675,0,100,130,4,28,5,2.17,7,3.41,60,<null>,1980,Ostrihansky1980,Ostrihansky1980,borehole
19813,Czechoslovakia,<null>,BC-2 CIZ,48.3167,20.2833,165,0,480,48,29,9,2.1,<null>,<null>,60,<null>,0,Kral_etal1985; Cermak_etal1991,Kral_etal1985; Cermak_etal1991,borehole
19814,Czechoslovakia,<null>,Benesov,50.7333,14.3167,210,50,1100,0,28,16,2.22,<null>,<null>,60,1,0,Cermak&Safanda1982; Cermak_etal1991,Cermak&Safanda1982; Cermak_etal1991,borehole
19815,Czechoslovakia,<null>,Berovice,50.2667,14.1333,212,100,1150,106,27,22,2.21,<null>,<null>,60,1,1976,Cermak1976a,Cermak1976a,borehole
19816,Czechoslovakia,<null>,Pernolec PE-11,49.7717,12.6733,0,50,190,15,22,5,2.79,11,2.12,60,<null>,1980,Ostrihansky1980,Ostrihansky1980,borehole
19817,Czechoslovakia,<null>,Vys. Liben MB-13,50.3367,14.5167,254,60,340,0,27,7,2.18,<null>,<null>,60,1,1977,Cermak1977,Cermak1977,borehole
19818,Czechoslovakia,<null>,Vranovice VR-1,48.9683,16.6783,193,500,1110,0,26,9,2.31,<null>,<null>,60,1,0,Cermak1968a; Cermak1975b,Cermak1967c; Cermak_etal1991; Cermak1968e,borehole
19819,Czechoslovakia,<null>,Svatonovice ST-7,50.54,16.0633,600,300,900,0,21,10,2.8,<null>,<null>,59,1,1968,Cermak1968b,Cermak1968b,borehole
19820,Czechoslovakia,<null>,Trojanovice NP-800,49.5217,18.2,458,600,800,0,27,10,1.96,<null>,<null>,59,1,1986,Kubik&Cermak1986,Kubik&Cermak1986,borehole
19821,Czechoslovakia,<null>,Bysen,50.25,14.0667,292,300,1000,70,26,12,2.24,<null>,<null>,59,1,1976,Cermak1976a,Cermak1976a,borehole
19822,Czechoslovakia,<null>,Trebivli,50.45,13.9,240,80,330,0,20,13,3.07,<null>,<null>,59,1,0,Cermak&Safanda1982; Cermak_etal1991,Cermak&Safanda1982; Cermak_etal1991,borehole
19823,Czechoslovakia,<null>,Pernink,50.375,12.775,893,10,220,22,19,5,3.07,<null>,<null>,59,1,0,Cermak&Safanda1982; Cermak_etal1991,Cermak&Safanda1982; Cermak_etal1991,borehole
19824,Czechoslovakia,<null>,Rusava Ru-1,49.34,17.6883,381,750,1950,0,31,11,2.14,<null>,<null>,59,1,1975,Cermak1975b,Cermak1975b,borehole
19825,Czechoslovakia,<null>,Mine Pribram,49.6867,13.9967,550,60,1500,16,18,14,3.11,<null>,<null>,59,1,1968,Cermak_etal1968b; Cermak1968c,Cermak_etal1968,borehole
19826,Czechoslovakia,<null>,Bucovice BU-1,49.145,16.9933,230,280,790,0,25,8,2.54,<null>,<null>,58,1,0,Cermak1968a; Cermak1975b,Cermak1968a; Cermak1975b,borehole
19827,Czechoslovakia,<null>,MJC-1CIZ,48.3333,20.2833,170,0,902,10,30,16,1.93,<null>,<null>,58,<null>,0,Kral_etal1985; Cermak_etal1991,Kral_etal1985; Cermak_etal1991,borehole
19828,Czechoslovakia,<null>,Pernolec PE-2,49.77,12.6767,0,80,520,45,23,16,2.5,36,2.39,58,<null>,1980,Ostrihansky1980,Ostrihansky1980,borehole
19829,Czechoslovakia,<null>,Lesna,50.8667,14.5833,450,70,660,32,18,7,3.28,<null>,<null>,58,1,1985,Cermak&Jetel1985,Cermak&Jetel1985,borehole
19830,Czechoslovakia,<null>,PE-48,49.7717,12.6933,516,20,350,34,0,12,2.61,<null>,<null>,58,<null>,0,Cermak&Safanda1982; Cermak_etal1991,Cermak&Safanda1982; Cermak_etal1991,borehole
19831,Czechoslovakia,<null>,Vitkov SV-1/70,49.8167,12.6633,513,100,653,66,24,41,2.33,65,3.14,57,1,1975,Cermak1975a,Cermak1968c; Ostrihansky1980,borehole
19832,Czechoslovakia,<null>,Kobyli Ko-1,48.925,16.9067,314,800,3440,0,22,22,2.27,<null>,<null>,57,1,1975,Cermak1975b,Cermak1975b,<null>
19833,Czechoslovakia,<null>,Lubna Lu-6,49.205,17.33,282,490,1200,95,33,9,1.42,<null>,<null>,56,1,1975,Cermak1975b,Cermak1975b,borehole
19834,Czechoslovakia,<null>,Lab LA-93,48.3917,17.005,173,546,2342,0,37,0,1.5,<null>,<null>,56,1,0,Marusiak&Lizon1975; Cermak&Krcmar1968b; Cermak_etal1991,Marusiak&Lizon1975; Cermak&Krcmar1968b; Cermak_etal1991,borehole
